ID,Source,TMC,Severity,Start_Time,End_Time,Start_Lat,Start_Lng,End_Lat,End_Lng,Distance(mi),Description,Number,Street,Side,City,County,State,Zipcode,Country,Timezone,Airport_Code,Weather_Timestamp,Temperature(F),Wind_Chill(F),Humidity(%),Pressure(in),Visibility(mi),Wind_Direction,Wind_Speed(mph),Precipitation(in),Weather_Condition,Amenity,Bump,Crossing,Give_Way,Junction,No_Exit,Railway,Roundabout,Station,Stop,Traffic_Calming,Traffic_Signal,Turning_Loop,Sunrise_Sunset,Civil_Twilight,Nautical_Twilight,Astronomical_Twilight
A-3824910,Bing,,2,2019-10-30 17:12:00,2019-10-30 17:45:35,44.88974,-93.34974,44.88985,-93.3504,0.033,At MN-100 - Accident.,,MN-62 W,R,Minneapolis,Hennepin,MN,55435,US,US/Central,KMSP,2019-10-30 16:53:00,33.0,25.0,48.0,29.32,10.0,WNW,10.0,0.0,Mostly Cloudy,False,False,False,False,True,False,False,False,False,False,False,False,False,Day,Day,Day,Day
A-1414623,MapQuest,241.0,2,2019-05-19 15:49:40,2019-05-19 17:38:32,35.789742,-79.595261,,,0.0,One lane blocked due to accident on NC-49 Northbound at Old Staley Rd.,3297.0,NC Highway 49 N,L,Liberty,Randolph,NC,27298-8554,US,US/Eastern,K5W8,2019-05-19 15:40:00,90.0,90.0,37.0,29.75,10.0,S,10.0,0.0,Fair,False,False,False,False,False,False,False,False,False,False,False,False,False,Day,Day,Day,Day
A-1668885,MapQuest,241.0,3,2019-01-28 13:49:37,2019-01-28 14:19:13,29.73361,-95.371323,,,0.0,Right lane blocked due to accident on I-69 Southbound at TX-288.,,I-69 N,R,Houston,Harris,TX,77004,US,US/Central,KMCJ,2019-01-28 13:55:00,71.6,,38.0,29.85,10.0,South,10.4,,Mostly Cloudy,False,False,False,False,False,False,False,False,False,False,False,False,False,Day,Day,Day,Day
A-2873745,Bing,,2,2017-03-24 14:03:46,2017-03-24 20:03:46,44.966517,-93.254894,44.966517,-93.254894,0.0,At I-94/Exit 16B - Accident.,,MN-55,R,Minneapolis,Hennepin,MN,55404,US,US/Central,KMSP,2017-03-24 13:53:00,44.1,38.6,71.0,30.08,10.0,NE,10.4,,Overcast,False,False,False,False,False,False,False,False,False,False,False,False,False,Day,Day,Day,Day
A-1004586,MapQuest,201.0,3,2019-12-07 14:28:33,2019-12-07 17:46:40,38.88652,-77.22052,,,0.0,Single alternate line traffic due to accident on I-66 Westbound at I-495.,,I-66 W,R,Falls Church,Fairfax County,VA,22043,US,US/Eastern,KDCA,2019-12-07 14:52:00,45.0,41.0,40.0,30.4,10.0,VAR,7.0,0.0,Fair,False,False,False,False,False,False,False,False,False,False,False,False,False,Day,Day,Day,Day
A-161994,MapQuest,201.0,2,2017-01-18 09:40:05,2017-01-18 10:09:19,41.20956,-96.138802,,,0.01,Accident on 144th St at N St.,4870.0,S 144th St,L,Omaha,Douglas,NE,68137,US,US/Central,KMLE,2017-01-18 09:35:00,33.6,30.6,92.0,30.03,10.0,ESE,3.5,,Clear,False,False,True,False,False,False,False,False,False,False,False,True,False,Day,Day,Day,Day
A-464503,MapQuest,201.0,2,2017-07-02 11:53:41,2017-07-02 12:37:43,34.030861,-118.43309,,,0.0,Right hand shoulder blocked due to accident on I-405 Northbound near Exits 53 53A 53B I-10.,,I-405 N,R,Los Angeles,Los Angeles,CA,90064,US,US/Pacific,KSMO,2017-07-02 11:51:00,71.1,,68.0,30.01,10.0,Variable,6.9,,Partly Cloudy,False,False,False,False,False,False,False,False,False,False,False,False,False,Day,Day,Day,Day
A-2397918,MapQuest,201.0,2,2018-01-29 07:52:24,2018-01-29 08:21:45,33.876934,-118.18618,,,0.0,Right hand shoulder blocked due to accident on CA-91 Westbound at Atlantic Ave.,,CA-91 W,R,Long Beach,Los Angeles,CA,90805,US,US/Pacific,KLGB,2018-01-29 07:53:00,61.0,,41.0,30.1,10.0,West,3.5,,Clear,False,False,False,False,False,False,False,False,False,False,False,False,False,Day,Day,Day,Day
A-2845914,Bing,,2,2016-10-04 18:26:13,2016-10-05 00:26:13,37.8443,-122.29767,37.854119,-122.30006,0.691,Between CA-13/Ashby Ave/Bay St and University Ave - Accident.,,I-580 W,R,Emeryville,Alameda,CA,94608,US,US/Pacific,KOAK,2016-10-04 18:53:00,64.9,,61.0,29.98,10.0,WNW,12.7,,Partly Cloudy,False,False,False,False,True,False,False,False,False,False,False,False,False,Day,Day,Day,Day
A-3060325,Bing,,2,2020-12-02 13:58:00,2020-12-03 00:40:53,38.61166,-121.40154,38.610645,-121.400756,0.082,Stationary traffic from Elvyra Way to Parkwood Dr due to accident.,2508.0, Fulton Ave,R,Sacramento,Sacramento,CA,95821-5908,US,US/Pacific,KMCC,2020-12-02 15:45:00,64.0,64.0,34.0,29.94,10.0,SW,5.0,,Fair,False,False,False,False,False,False,False,False,False,False,False,False,False,Day,Day,Day,Day
A-1369358,MapQuest,201.0,3,2019-06-21 16:51:11,2019-06-21 19:27:45,41.220917,-96.088326,,,0.0,Left lane closed due to accident on I-80 Eastbound at Exits 445 446 I-680 Exits 1 446.,11290.0,E Cir,R,Omaha,Douglas,NE,68137,US,US/Central,KMLE,2019-06-21 16:55:00,81.0,81.0,63.0,28.62,10.0,SE,3.0,0.0,Partly Cloudy,False,False,False,False,False,False,False,False,False,False,False,False,False,Day,Day,Day,Day
A-1805222,MapQuest,201.0,2,2018-10-05 08:57:02,2018-10-05 09:26:46,42.379185,-87.914337,,,0.0,Accident on US-41 Skokie Hwy Southbound at Kilbourne Rd.,35711.0,N Skokie Hwy,L,Gurnee,Lake,IL,60031,US,US/Central,KUGN,2018-10-05 08:55:00,55.0,,93.0,30.01,5.0,ESE,9.2,0.06,Overcast,False,False,False,False,False,False,False,False,False,False,False,False,False,Day,Day,Day,Day
A-1484373,MapQuest,339.0,3,2019-04-22 10:01:41,2019-04-22 12:49:55,40.126484,-86.51786,,,19.3999996185,One lane blocked due to jackknifed vehicle on I-65 Southbound from Exit 158 IN-28 to Exit 146 IN-47.,,W State Road 47,R,Thorntown,Boone,IN,46071,US,US/Eastern,KTYQ,2019-04-22 09:55:00,58.0,58.0,59.0,29.19,10.0,SSE,9.0,0.0,Fair,False,False,False,False,False,False,False,False,False,False,False,False,False,Day,Day,Day,Day
A-1865827,MapQuest,201.0,2,2018-09-04 18:13:54,2018-09-04 18:43:43,33.87854,-81.217079,,,0.0,Accident on SC-6 Lake Dr at Pleasant View Dr.,2501.0,S Lake Dr,R,Lexington,Lexington,SC,29073-7767,US,US/Eastern,KCAE,2018-09-04 17:56:00,91.0,,53.0,30.13,10.0,SE,10.4,,Mostly Cloudy,False,False,False,False,False,False,False,False,False,True,False,False,False,Day,Day,Day,Day
A-2861959,Bing,,2,2017-01-27 13:46:42,2017-01-27 19:46:42,39.97149,-83.119,39.97525,-83.11573,0.312,Ramp to I-70 Eb - Accident.,,Outerbelt N,R,Columbus,Franklin,OH,43228,US,US/Eastern,KTZR,2017-01-27 13:50:00,30.2,21.3,69.0,29.87,10.0,West,10.4,,Overcast,False,False,False,False,True,False,False,False,False,False,False,False,False,Day,Day,Day,Day
A-1141066,MapQuest,201.0,2,2019-11-20 22:44:27,2019-11-20 23:59:20,34.230511,-118.402161,,,0.0,Accident on Laurel Canyon Blvd both ways at Allegheny St.,12262.0,Allegheny St,L,Sun Valley,Los Angeles,CA,91352-2404,US,US/Pacific,KBUR,2019-11-20 22:53:00,53.0,53.0,66.0,28.92,10.0,SSE,6.0,0.0,Light Rain,False,False,False,False,False,False,False,False,False,False,False,False,False,Night,Night,Night,Night
A-3260766,Bing,,2,2020-10-02 22:03:00,2020-10-03 00:45:00,33.92017,-84.320636,33.91787,-84.291726,1.665,Incident on I-285 EB near CHAMBLEE DUNWOODY Right lane blocked. Expect delays.,,GA-407 E,R,Atlanta,DeKalb,GA,30319,US,US/Eastern,KPDK,2020-10-02 21:53:00,57.0,57.0,59.0,29.05,10.0,NNW,8.0,0.0,Fair,False,False,False,False,False,False,False,False,False,False,False,False,False,Night,Night,Night,Night
A-753831,MapQuest,201.0,2,2020-05-27 11:33:41,2020-05-27 12:18:28,34.34602,-89.521187,,,0.0,Accident on Lamar Blvd at Harlan Dr.,2405.0,S Lamar Blvd,R,Oxford,Lafayette,MS,38655-5348,US,US/Central,KUOX,2020-05-27 11:35:00,77.0,77.0,65.0,29.44,9.0,S,9.0,0.0,Light Drizzle,False,False,False,False,False,False,False,False,False,False,False,False,False,Day,Day,Day,Day
A-1402628,MapQuest,241.0,2,2019-05-13 16:26:46,2019-05-13 17:43:37,28.359764,-81.365097,,,0.0,Lane blocked due to accident on Brook Hollow Dr at Landstar Blvd.,,Brook Hollow Dr,R,Orlando,Orange,FL,32824,US,US/Eastern,KMCO,2019-05-13 16:28:00,72.0,72.0,91.0,29.82,7.0,W,10.0,0.03,T-Storm,False,False,False,False,False,False,False,False,False,False,False,False,False,Day,Day,Day,Day
A-2176989,MapQuest,241.0,3,2018-04-09 12:27:08,2018-04-09 12:56:49,37.088989,-76.458557,,,0.0,Lane blocked and left hand shoulder blocked due to accident on I-64 Westbound before Exits 258A 258B US-17 J Clyde Morris Blvd.,,I-64 W,R,Newport News,Newport News,VA,23601,US,US/Eastern,,,,,,,,,,,,False,False,False,True,False,False,False,False,False,False,False,False,False,Day,Day,Day,Day
A-152944,MapQuest,201.0,3,2016-09-15 04:20:32,2016-09-15 05:05:32,33.639172,-81.740425,,,0.0,Accident an animal involved on I-20 Eastbound at Exit 18 SC-19 Edgefield Hwy.,,Edgefield Hwy,R,Aiken,Aiken,SC,29801,US,US/Eastern,KAIK,2016-09-15 04:15:00,68.0,,100.0,30.09,10.0,North,3.5,,Scattered Clouds,False,False,False,False,False,False,False,False,False,False,False,False,False,Night,Night,Night,Night
A-3474533,Bing,,2,2020-05-03 20:00:00,2020-05-03 20:59:00,39.7704,-111.48725,39.7704,-111.48725,0.0,At Nebo Creek Trl - Accident.,,US-89 N,R,Fairview,Sanpete,UT,84629,US,US/Mountain,KPUC,2020-05-03 19:53:00,62.0,62.0,37.0,24.08,10.0,NW,21.0,0.0,Partly Cloudy / Windy,False,False,False,False,False,False,False,False,False,False,False,False,False,Day,Day,Day,Day
A-1414061,MapQuest,201.0,3,2019-05-18 06:04:45,2019-05-18 10:20:12,29.772346,-95.365982,,,0.0,Right and center lane blocked and right hand shoulder blocked due to accident on I-10 Westbound at Louisiana St.,,I-45 N,R,Houston,Harris,TX,77002,US,US/Central,KMCJ,2019-05-18 05:53:00,78.0,78.0,84.0,29.74,10.0,SSE,13.0,0.0,Mostly Cloudy,False,False,False,False,False,False,False,False,False,False,False,False,False,Night,Day,Day,Day
A-3799636,Bing,,2,2019-10-10 19:35:00,2019-10-10 20:08:10,33.288848,-117.225431,33.288848,-117.225431,0.0,At Camino Del Rey - Accident.,,Olive Hill Rd,R,Bonsall,San Diego,CA,92003,US,US/Pacific,KNFG,2019-10-10 19:55:00,63.0,63.0,75.0,29.8,10.0,CALM,0.0,0.0,Fair,False,False,False,False,False,False,False,False,False,False,False,True,False,Night,Night,Night,Day
A-2458007,MapQuest,201.0,2,2017-12-28 07:36:59,2017-12-28 08:06:39,41.925556,-88.111938,,,0.0,Accident on Kimberly Dr at Mission St.,797.0,Kimberly Dr,L,Carol Stream,Dupage,IL,60188-9407,US,US/Central,KDPA,2017-12-28 07:52:00,3.0,-4.4,80.0,30.67,7.0,South,3.5,,Overcast,False,False,False,False,False,False,False,False,False,False,False,False,False,Day,Day,Day,Day
A-58121,MapQuest,201.0,3,2016-12-21 17:40:28,2016-12-21 18:25:10,34.049313,-117.305252,,,0.01,#1 lane blocked due to accident on I-215 Southbound before Exit 39 Washington St.,,I-215 S,R,Colton,San Bernardino,CA,92324,US,US/Pacific,KSBD,2016-12-21 17:39:00,55.4,,89.0,30.0,10.0,Calm,,,Mostly Cloudy,False,False,False,False,False,False,False,False,False,False,False,False,False,Night,Night,Day,Day
A-1901938,MapQuest,201.0,2,2018-09-21 17:47:38,2018-09-21 18:17:16,43.084862,-77.511642,,,0.0,Accident on NY-96 Jefferson Rd near Jefferson Cir.,99.0,E Jefferson Cir,R,Pittsford,Monroe,NY,14534-2209,US,US/Eastern,KROC,2018-09-21 17:54:00,88.0,,49.0,29.68,10.0,WSW,17.3,,Mostly Cloudy,False,False,False,False,False,False,False,False,False,False,False,False,False,Day,Day,Day,Day
A-4099719,Bing,,2,2018-01-24 18:57:58,2018-01-25 00:57:58,37.846089,-122.48667,37.842838,-122.485852,0.229,At Sausalito Lateral Rd - Accident.,,US-101 S,R,Sausalito,Marin,CA,94965,US,US/Pacific,KSFO,2018-01-24 18:56:00,51.1,,86.0,29.99,10.0,ESE,9.2,0.05,Overcast,False,False,False,False,False,False,False,False,False,False,False,False,False,Night,Night,Night,Night
A-712252,MapQuest,201.0,2,2020-08-01 16:08:55,2020-08-01 18:02:12,38.415878,-105.031013,,,0.0,Right lane blocked due to accident on US-50 Westbound at Fremont St.,,US-50 W,R,Penrose,Fremont,CO,81240,US,US/Mountain,K1V6,2020-08-01 16:10:00,88.0,88.0,22.0,24.71,10.0,ESE,9.0,0.0,Fair,False,False,False,False,False,False,False,False,False,False,False,False,False,Day,Day,Day,Day
A-2374662,MapQuest,201.0,2,2018-01-16 15:35:31,2018-01-16 16:20:21,36.204391,-86.595749,,,0.0,Accident on Dutchmans Dr at Albany Dr.,687.0,Dutchmans Dr,L,Hermitage,Davidson,TN,37076-2349,US,US/Central,KBNA,2018-01-16 15:53:00,16.0,7.4,59.0,30.61,10.0,NNW,5.8,,Partly Cloudy,False,False,False,False,False,False,False,False,False,False,False,False,False,Day,Day,Day,Day
A-389428,MapQuest,201.0,2,2017-03-08 22:57:18,2017-03-08 23:26:51,30.275248,-97.729591,,,0.0,Accident on 15th St between Olander St and Waller St.,1001.0,E 15th St,R,Austin,Travis,TX,78702-1026,US,US/Central,KATT,2017-03-08 22:51:00,69.1,,81.0,30.18,10.0,South,5.8,,Overcast,False,False,False,False,False,False,False,False,False,False,False,False,False,Night,Night,Night,Night
A-2295677,MapQuest,201.0,2,2018-02-05 08:25:31,2018-02-05 08:56:00,39.934433,-105.090698,,,0.0,Accident on US-287 at Miramonte Blvd.,1900.0,Miramonte Blvd,L,Broomfield,Broomfield,CO,80020,US,US/Mountain,KBJC,2018-02-05 08:25:00,46.4,38.5,50.0,29.87,25.0,WSW,21.9,,Scattered Clouds,False,False,True,False,False,False,False,False,False,False,False,True,False,Day,Day,Day,Day
A-1745217,MapQuest,201.0,3,2018-11-07 05:19:24,2018-11-07 05:49:00,33.941204,-117.555847,,,0.0,Right hand shoulder blocked and slow lane blocked due to accident on I-15 Southbound before Exit 100 6th St.,,I-15 S,R,Norco,Riverside,CA,92860,US,US/Pacific,KAJO,2018-11-07 04:56:00,57.0,,87.0,30.02,10.0,Calm,,,Overcast,False,False,False,False,False,False,False,False,False,False,False,False,False,Night,Night,Day,Day
A-3951625,Bing,,2,2018-12-21 22:38:00,2018-12-21 23:37:00,40.74509,-111.72865,40.74743,-111.72362,0.309,At UT-65/Exit 134 - Accident.,,I-80 W,R,Salt Lake City,Salt Lake,UT,84108,US,US/Mountain,KSLC,2018-12-21 22:24:00,33.1,23.9,96.0,30.03,1.0,NW,12.7,0.04,Light Snow,False,False,False,False,False,False,False,False,False,False,False,False,False,Night,Night,Night,Night
A-3572890,Bing,,2,2020-03-10 19:17:00,2020-03-10 21:50:16,44.14848,-93.79733,44.14848,-93.79733,0.0,At MN-60/T-325 - Accident.,,US-14 W,R,Eagle Lake,Blue Earth,MN,56024,US,US/Central,KMKT,2020-03-10 19:20:00,32.0,26.0,100.0,29.03,0.5,ENE,6.0,0.01,Snow,False,False,False,False,False,False,False,False,False,False,False,False,False,Night,Day,Day,Day
A-1786752,MapQuest,241.0,2,2018-11-27 09:58:36,2018-11-27 10:28:13,32.766403,-96.914665,,,0.0,One lane blocked due to accident on TX-12 Loop Southbound at I-30 Tom Landry Fwy.,,Loop 12 N,R,Dallas,Dallas,TX,75212,US,US/Central,KDAL,2018-11-27 09:53:00,50.0,,44.0,30.22,10.0,SW,9.2,,Partly Cloudy,False,False,False,False,False,False,False,False,False,False,False,False,False,Day,Day,Day,Day
A-1628092,MapQuest,201.0,2,2019-01-08 06:03:44,2019-01-08 07:03:26,34.428631,-80.741127,,,0.0,Accident on River Rd at Running Fox Rd.,2498.0,Running Fox Rd,R,Camden,Kershaw,SC,29020-9162,US,US/Eastern,KCDN,2019-01-08 05:55:00,51.8,,94.0,30.16,8.0,Variable,4.6,,Overcast,False,False,False,False,False,False,False,False,False,False,False,False,False,Night,Night,Night,Day
A-2392410,MapQuest,201.0,2,2018-01-26 08:40:26,2018-01-26 09:25:16,35.160187,-80.920982,,,0.0,Accident on Adare Mews Rd at Beam Rd.,2302.0,Beam Rd,R,Charlotte,Mecklenburg,NC,28217,US,US/Eastern,KCLT,2018-01-26 08:52:00,37.9,,65.0,30.67,9.0,Calm,,,Mostly Cloudy,False,False,False,False,False,False,False,False,False,False,False,False,False,Day,Day,Day,Day
A-753673,MapQuest,201.0,2,2020-05-27 14:57:23,2020-05-27 15:57:13,30.451469,-91.12104,,,0.0,Accident on US-190-BR Florida Blvd at Alello Dr.,,Alello Dr,R,Baton Rouge,East Baton Rouge,LA,70806,US,US/Central,KBTR,2020-05-27 14:53:00,83.0,83.0,60.0,29.8,10.0,VAR,7.0,0.0,Fair,False,False,False,False,False,False,False,False,False,False,False,False,False,Day,Day,Day,Day
A-2659013,MapQuest,201.0,2,2017-08-03 08:00:51,2017-08-03 08:45:15,30.395247,-91.109673,,,0.0,Accident on Essen Ln at LA-427 Perkins Rd.,,Perkins Rd,R,Baton Rouge,East Baton Rouge,LA,70808,US,US/Central,KBTR,2017-08-03 07:53:00,73.9,,91.0,30.04,10.0,East,5.8,,Mostly Cloudy,False,False,False,False,False,False,False,False,False,False,False,False,False,Day,Day,Day,Day
A-3200056,Bing,,2,2020-12-04 01:13:00,2020-12-04 04:14:16,37.693822,-122.456052,37.694224,-122.455195,0.054,Incident on E MARKET ST EB near PRICE ST Drive with caution.,1137.0, E Market St,R,Daly City,San Mateo,CA,94014,US,US/Pacific,KSFO,2020-12-04 00:56:00,49.0,49.0,66.0,30.29,9.0,CALM,0.0,0.0,Fair,False,False,False,False,False,False,False,False,False,False,False,False,False,Night,Night,Night,Night
A-1481535,MapQuest,201.0,2,2019-04-19 13:10:06,2019-04-19 16:39:38,38.516178,-90.548553,,,0.0,Left hand shoulder blocked due to accident on I-44 Eastbound at Exit 269 Antire Rd.,,I-44 E,R,High Ridge,St. Louis County,MO,63049,US,US/Central,KSUS,2019-04-19 12:54:00,52.0,52.0,57.0,29.33,10.0,N,17.0,0.0,Cloudy,False,False,False,False,False,False,False,False,False,False,False,False,False,Day,Day,Day,Day
A-2460030,MapQuest,201.0,2,2017-12-29 12:10:22,2017-12-29 12:55:00,41.259647,-96.000046,,,0.0,Accident on Happy Hollow Blvd at US-6 Dodge St.,5561.0,Dodge St,L,Omaha,Douglas,NE,68132-2833,US,US/Central,KOMA,2017-12-29 12:11:00,17.1,6.6,77.0,30.2,2.5,East,8.1,0.0,Light Freezing Drizzle,False,False,True,False,False,False,False,False,False,False,False,True,False,Day,Day,Day,Day
A-1171546,MapQuest,201.0,2,2019-09-18 19:25:34,2019-09-18 20:29:06,34.295261,-80.549423,,,0.0,Accident on Cheraw Rd at US-1.,800.0,Cheraw Rd,L,Cassatt,Kershaw,SC,29032-9306,US,US/Eastern,KCDN,2019-09-18 19:35:00,77.0,77.0,47.0,29.78,10.0,NNE,5.0,0.0,Cloudy,False,False,False,False,False,False,False,False,False,False,False,False,False,Night,Day,Day,Day
A-986527,MapQuest,201.0,2,2019-12-29 21:59:36,2019-12-29 22:29:23,35.278908,-80.793503,,,0.0,Accident on I-85 Northbound at Exit 41 Sugar Creek Rd.,,W Sugar Creek Rd,R,Charlotte,Mecklenburg,NC,28206,US,US/Eastern,KCLT,2019-12-29 21:52:00,67.0,67.0,90.0,29.05,10.0,S,15.0,0.0,Cloudy,False,False,False,False,False,False,False,False,False,False,False,False,False,Night,Night,Night,Night
A-1474029,MapQuest,241.0,3,2019-04-16 08:06:32,2019-04-16 09:07:22,35.725182,-81.637466,,,0.0,One lane blocked due to accident on I-40 Eastbound at Exit 106 Bethel Rd.,,I-40 E,R,Morganton,Burke,NC,28655,US,US/Eastern,KMRN,2019-04-16 08:00:00,43.0,43.0,88.0,28.92,10.0,CALM,0.0,0.0,Fair,False,False,False,False,False,False,False,False,False,False,False,False,False,Day,Day,Day,Day
A-1986829,MapQuest,201.0,3,2018-07-02 04:53:10,2018-07-02 05:37:54,32.496681,-93.75985,,,0.0,Accident on I-20 Westbound at Exits 17A 17B I-49.,,I-20 W,R,Shreveport,Caddo,LA,71103,US,US/Central,KDTN,2018-07-02 04:53:00,81.0,,79.0,29.97,10.0,SW,9.2,,Clear,False,False,False,False,False,False,False,False,False,False,False,False,False,Night,Night,Night,Day
A-1215708,MapQuest,201.0,3,2019-09-13 14:53:43,2019-09-13 15:23:08,41.123661,-112.022896,,,0.0,Center lane blocked due to accident on I-15 Southbound near Exit 335 UT-103 650.,,E 650 N,R,Clearfield,Davis,UT,84015,US,US/Mountain,KHIF,2019-09-13 14:58:00,74.0,74.0,22.0,25.38,10.0,W,5.0,0.0,Fair,False,False,False,False,False,False,False,False,False,False,False,True,False,Day,Day,Day,Day
A-1531526,MapQuest,241.0,2,2019-03-19 11:32:07,2019-03-19 14:04:39,34.242748,-119.190849,,,0.0,Lane blocked due to accident on US-101 Southbound at Exit 63 Johnson Dr.,,CA-1 S,R,Ventura,Ventura,CA,93003,US,US/Pacific,KOXR,2019-03-19 11:51:00,57.9,,81.0,29.99,4.0,South,8.1,,Overcast,False,False,False,False,False,False,False,False,False,False,False,False,False,Day,Day,Day,Day
A-3874793,Bing,,3,2019-09-08 14:15:40,2019-09-08 14:45:01,44.86161,-93.274529,44.86213,-93.25458,0.978,At 12th Ave/Portland Ave/Exit 3 - Accident.,,I-494 E,R,Minneapolis,Hennepin,MN,55420,US,US/Central,KMSP,2019-09-08 13:53:00,58.0,58.0,87.0,29.23,10.0,ENE,10.0,0.0,Light Rain,False,False,False,False,False,False,False,False,False,False,False,False,False,Day,Day,Day,Day
A-1544062,MapQuest,201.0,2,2019-03-26 17:00:16,2019-03-26 20:40:35,30.182705,-97.541168,,,0.0,Accident on Wolf Ln at TX-71.,5383.0,Highway 71 E,R,Del Valle,Travis,TX,78617,US,US/Central,KAUS,2019-03-26 16:53:00,78.1,,37.0,30.21,10.0,NE,9.2,,Scattered Clouds,False,False,False,False,False,False,False,False,False,False,False,False,False,Day,Day,Day,Day
A-1260123,MapQuest,201.0,3,2019-07-08 12:46:03,2019-07-08 14:15:42,35.533199,-97.512093,,,0.0,Accident on I-44 Service Rd Eastbound at 59th St.,6000.0,N Santa Fe Ave,R,Oklahoma City,Oklahoma,OK,73105,US,US/Central,KPWA,2019-07-08 12:53:00,86.0,86.0,59.0,28.59,10.0,S,9.0,0.0,Fair,False,False,False,False,False,True,False,False,False,False,False,False,False,Day,Day,Day,Day
A-354106,MapQuest,201.0,3,2017-02-17 16:43:25,2017-02-17 17:12:38,26.655329,-80.069389,,,0.01,Accident on I-95 Southbound at Exit 66 FL-882 Forest Hill Blvd.,,I-95 N,R,West Palm Beach,Palm Beach,FL,33405,US,US/Eastern,KPBI,2017-02-17 16:53:00,73.0,,51.0,30.06,10.0,SE,12.7,,Scattered Clouds,False,False,False,False,False,False,False,False,False,False,False,False,False,Day,Day,Day,Day
A-982537,MapQuest,241.0,2,2020-01-03 17:25:58,2020-01-03 18:26:18,34.153332,-118.65255,,,0.0,#1 lane blocked due to accident on US-101 Eastbound at Parkway Calabasas.,,US-101 N,R,Calabasas,Los Angeles,CA,91302,US,US/Pacific,KVNY,2020-01-03 17:51:00,65.0,65.0,39.0,29.37,10.0,W,3.0,0.0,Fair,False,False,False,False,False,False,False,False,False,False,False,False,False,Night,Night,Day,Day
A-1752221,MapQuest,201.0,3,2018-11-10 15:58:51,2018-11-10 16:43:18,33.547577,-86.7491,,,0.0,One lane blocked and right hand shoulder blocked due to accident on I-20 Westbound at Exits 130 130A 130B I-59.,,I-59 N,R,Birmingham,Jefferson,AL,35212,US,US/Central,KBHM,2018-11-10 15:53:00,46.0,40.6,47.0,30.32,10.0,North,11.5,,Clear,False,False,False,False,False,False,False,False,False,False,False,False,False,Day,Day,Day,Day
A-2131176,MapQuest,241.0,3,2018-05-16 13:21:08,2018-05-16 13:50:49,37.089104,-76.459023,,,2.67000007629,Lane blocked due to accident on I-64 Eastbound between Exits 256A 256B VA-171 Victory Blvd and Exits 258A 258B US-17 J Clyde Morris Blvd.,,I-64 E,R,Newport News,Newport News,VA,23601,US,US/Eastern,,,,,,,,,,,,False,False,False,False,False,False,False,False,False,False,False,False,False,Day,Day,Day,Day
A-2900982,Bing,,4,2017-04-05 21:29:40,2017-04-06 03:29:40,34.777136,-85.54143,34.865372,-85.517249,6.249,Closed at GA-136/Exit 11 - Road closed due to accident.,,I-59 N,R,Rising Fawn,Dade,GA,30738,US,US/Central,K4A9,2017-04-05 21:35:00,60.8,,48.0,29.7,10.0,WNW,9.2,,Overcast,False,False,False,False,False,False,False,False,False,False,False,False,False,Night,Night,Night,Day
A-3197517,Bing,,2,2020-10-24 11:53:00,2020-10-24 13:13:23,35.280629,-112.786256,35.272479,-112.749956,2.124,Incident on I-40 EB near I-40 BUS Left lane blocked.,,I-40 E,R,Ash Fork,Yavapai,AZ,86320,US,US/Mountain,KCMR,2020-10-24 11:57:00,61.0,61.0,39.0,23.27,10.0,SSW,16.0,0.0,Fair,False,False,False,False,False,False,False,False,False,False,False,False,False,Day,Day,Day,Day
A-107777,MapQuest,201.0,2,2016-05-19 10:49:54,2016-05-19 11:19:54,34.135731,-117.58519,,,0.0,Left hand shoulder blocked due to accident on CA-210 Westbound after Exit 59 Haven Ave.,,Foothill Fwy W,R,Rancho Cucamonga,San Bernardino,CA,91737,US,US/Pacific,KONT,2016-05-19 10:53:00,64.9,,70.0,29.9,4.0,Variable,3.5,,Haze,False,False,False,False,False,False,False,False,False,False,False,False,False,Day,Day,Day,Day
A-285627,MapQuest,222.0,3,2016-09-19 18:02:21,2016-09-19 18:47:21,32.847778,-96.879265,,,0.0,Queueing traffic due to accident on I-35E Southbound at Exits 436A 436B TX-12 Loop Northwest Hwy.,,US-77 S,R,Dallas,Dallas,TX,75220,US,US/Central,KDAL,2016-09-19 17:53:00,98.1,,39.0,29.92,10.0,ESE,10.4,,Scattered Clouds,False,False,False,False,False,False,False,False,False,False,False,False,False,Day,Day,Day,Day
A-357487,MapQuest,201.0,2,2017-03-14 07:10:01,2017-03-14 07:39:46,25.736317,-80.165298,,,0.01,Accident on FL-913 Rickenbacker Cswy near Arthur Lamb Jr Rd.,,Rickenbacker Cswy,R,Key Biscayne,Miami-Dade,FL,33149,US,US/Eastern,KMIA,2017-03-14 06:53:00,70.0,,90.0,29.9,10.0,SW,8.1,,Mostly Cloudy,False,False,True,False,False,False,False,False,False,False,False,False,False,Night,Day,Day,Day
A-2375996,MapQuest,201.0,2,2018-01-17 12:47:04,2018-01-17 13:31:39,39.780907,-86.168304,,,0.0,Accident on Dr Martin Luther King Jr St at 10th St.,,Dr Martin Luther King Jr St,R,Indianapolis,Marion,IN,46202,US,US/Eastern,KEYE,2018-01-17 12:53:00,15.1,9.4,70.0,30.6,10.0,Variable,3.5,,Clear,False,False,True,False,False,False,False,False,False,False,False,True,False,Day,Day,Day,Day
A-1399568,MapQuest,201.0,2,2019-05-10 15:47:56,2019-05-10 16:17:44,36.098888,-95.975418,,,0.0,Accident on Peoria Ave at 44th Pl.,1301.0,E 44th Pl,L,Tulsa,Tulsa,OK,74105,US,US/Central,KRVS,2019-05-10 15:53:00,65.0,65.0,48.0,29.37,10.0,N,10.0,0.0,Fair,False,False,True,False,False,False,False,False,False,True,False,False,False,Day,Day,Day,Day
A-2157422,MapQuest,201.0,3,2018-05-29 18:51:29,2018-05-29 19:21:03,41.65221,-93.697533,,,0.0,Right lane blocked due to accident on I-80 I-35 Westbound at Exit 131 Merle Hay Rd.,,Merle Hay Rd,R,Johnston,Polk,IA,50131,US,US/Central,KIKV,2018-05-29 18:55:00,73.4,,73.0,29.77,8.0,West,11.5,,Scattered Clouds,False,False,False,False,False,False,False,False,False,False,False,False,False,Day,Day,Day,Day
A-434363,MapQuest,245.0,3,2017-05-01 08:32:54,2017-05-01 09:16:38,32.759506,-97.086479,,,0.01,Two lanes blocked due to accident on I-30 Tom Landry Fwy Eastbound at Baird Farm Dr.,,Tom Landry Fwy,R,Arlington,Tarrant,TX,76011,US,US/Central,KGPM,2017-05-01 08:50:00,55.4,,51.0,30.0,10.0,SSE,3.5,,Clear,False,False,False,False,False,False,False,False,False,False,False,False,False,Day,Day,Day,Day
A-3226737,Bing,,4,2020-09-11 16:50:11,2020-09-14 06:59:00,45.343789,-122.351199,45.344997,-122.35145,0.084,Road OR-224 is closed from OR-211/Woodburn Estacada Hwy (Clackamas Hwy/OR-224) to OR-211 (Clackamas Hwy/OR-224) due to accident landslips. Passable with care.,30400.0, SE Wildcat Mountain Dr,R,Eagle Creek,Clackamas,OR,97022-9711,US,US/Pacific,KTTD,2020-09-11 16:53:00,65.0,65.0,61.0,29.98,1.0,CALM,0.0,0.0,Smoke,False,False,False,False,False,False,False,False,False,False,False,False,False,Day,Day,Day,Day
A-3069131,Bing,,2,2020-12-07 22:34:00,2020-12-08 02:46:40,36.59683,-119.423841,36.596866,-119.430817,0.387,Incident Re-opened: FSO 97 INVLD ADSVD HE WAS INVLD IN ATV TC ON THE CANAL BANK,19999.0, E Springfield Ave,R,Reedley,Fresno,CA,93654,US,US/Pacific,KFAT,2020-12-07 23:53:00,42.0,42.0,67.0,29.86,5.0,SE,3.0,0.0,Fair,False,False,False,False,False,False,False,False,False,False,False,False,False,Night,Night,Night,Night
A-31897,MapQuest,201.0,2,2016-03-28 20:32:15,2016-03-28 21:17:15,37.083797,-122.081642,,,0.0,Accident on Newell Creek Rd Southbound near Glen Arbor Rd.,9251.0,Glen Arbor Rd,L,Ben Lomond,Santa Cruz,CA,95005-9516,US,US/Pacific,KWVI,2016-03-28 20:53:00,48.0,,83.0,29.92,10.0,NW,4.6,,Clear,False,False,False,False,False,False,False,False,True,False,False,False,False,Night,Night,Night,Day
A-3894809,Bing,,2,2019-03-22 21:42:05,2019-03-23 01:42:05,45.52614,-122.6596,45.52577,-122.66039,0.046,At Grand Ave/OR-99/Pacific Hwy - Accident.,,I-84 W,R,Portland,Multnomah,OR,97232,US,US/Pacific,KPDX,2019-03-22 21:53:00,51.1,,83.0,30.07,10.0,SE,3.5,,Overcast,False,False,False,False,False,False,False,False,False,False,False,True,False,Night,Night,Night,Night
A-3680623,Bing,,2,2020-01-10 14:04:00,2020-01-10 14:57:28,37.548064,-122.291312,37.548064,-122.291312,0.0,At Hillsdale Blvd/Exit 414A - Accident.,,Bayshore Fwy S,R,San Mateo,San Mateo,CA,94403,US,US/Pacific,KSQL,2020-01-10 13:51:00,55.0,55.0,58.0,30.28,10.0,VAR,3.0,0.0,Fair,False,False,False,False,False,False,False,False,False,False,False,False,False,Day,Day,Day,Day
A-1641945,MapQuest,201.0,2,2019-01-15 07:16:56,2019-01-15 07:46:38,32.935131,-97.008186,,,0.0,Accident on Freeport Pkwy at I-635 Exit 34.,,Freeport Pkwy,R,Irving,Dallas,TX,75063,US,US/Central,KDFW,2019-01-15 06:53:00,37.9,34.4,86.0,30.32,8.0,SSE,4.6,,Mostly Cloudy,False,False,False,False,True,False,False,False,False,False,False,False,False,Night,Day,Day,Day
A-1739895,MapQuest,201.0,2,2018-11-06 10:03:45,2018-11-06 10:33:29,35.216099,-80.856239,,,0.0,Accident on NC-49 Tryon St at Summit Ave.,100.0,W Summit Ave,R,Charlotte,Mecklenburg,NC,28203-4449,US,US/Eastern,KCLT,2018-11-06 09:52:00,70.0,,97.0,29.93,10.0,SSW,20.7,,Overcast,False,False,False,False,False,False,False,False,False,False,False,True,False,Day,Day,Day,Day
A-352675,MapQuest,201.0,2,2017-03-30 03:45:06,2017-03-30 04:29:22,34.133812,-118.35154,,,0.01,Accident on Universal Studios Blvd both ways near Buddy Holly Dr.,,Buddy Holly Dr,R,Los Angeles,Los Angeles,CA,90068,US,US/Pacific,KBUR,2017-03-30 03:53:00,57.9,,47.0,29.93,10.0,Calm,,,Clear,False,False,True,False,False,False,False,False,False,False,False,True,False,Night,Night,Night,Night
A-4160076,Bing,,2,2017-08-21 16:34:26,2017-08-21 22:34:26,40.82368,-73.87745,40.82469,-73.86962,0.415,At Bronx River Pky - Accident.,,Bruckner Expy E,R,Bronx,Bronx,NY,10472,US,US/Eastern,KLGA,2017-08-21 16:51:00,84.9,,55.0,30.11,10.0,South,12.7,,Scattered Clouds,False,False,False,False,False,False,False,False,False,False,False,False,False,Day,Day,Day,Day
A-86770,MapQuest,241.0,3,2016-08-05 14:47:39,2016-08-05 15:32:39,33.98777,-118.399239,,,0.0,One lane blocked due to accident on I-405 Southbound near Exits 50A 50B CA-90.,,San Diego Fwy S,R,Culver City,Los Angeles,CA,90230,US,US/Pacific,KSMO,2016-08-05 14:51:00,73.9,,68.0,29.86,10.0,WSW,12.7,,Clear,False,False,False,False,False,False,False,False,False,False,False,False,False,Day,Day,Day,Day
A-2647075,MapQuest,201.0,3,2017-09-29 12:43:02,2017-09-29 13:45:00,30.190359,-97.770462,,,0.0,#1 / #2 / #3 lane blocked and left hand shoulder blocked due to accident on I-35 Northbound at Exits 228 228-229 William Cannon Dr.,1601.0,E William Cannon Dr,L,Austin,Travis,TX,78744,US,US/Central,KAUS,2017-09-29 12:53:00,75.9,,82.0,30.07,9.0,North,11.5,,Overcast,False,False,False,False,False,False,False,False,False,False,False,False,False,Day,Day,Day,Day
A-68944,MapQuest,201.0,2,2016-11-03 09:29:08,2016-11-03 10:03:00,33.771381,-117.831139,,,0.01,Left hand shoulder blocked due to accident on CA-55 Southbound at Exit 13 CA-22.,,CA-55 S,R,Santa Ana,Orange,CA,92705,US,US/Pacific,KSNA,2016-11-03 09:53:00,70.0,,47.0,30.06,10.0,West,3.5,,Clear,False,False,False,False,False,False,False,False,False,False,False,False,False,Day,Day,Day,Day
A-393028,MapQuest,201.0,2,2017-03-24 21:39:11,2017-03-24 22:09:01,30.242134,-97.759605,,,0.01,Accident on Oltorf St at 1st St.,599.0,W Oltorf St,L,Austin,Travis,TX,78704-5447,US,US/Central,KATT,2017-03-24 21:51:00,68.0,,76.0,29.91,10.0,Calm,,,Clear,False,False,False,False,False,False,False,False,False,False,False,True,False,Night,Night,Night,Night
A-2561090,MapQuest,406.0,3,2017-10-20 09:18:49,2017-10-20 09:47:37,40.745895,-73.974403,,,2.09999990463,Entry ramp to Queens Midtown Tunl Eastbound from 35th St closed due to accident. Detour in operation.,277.0,E 36th St,L,New York,New York,NY,10016-3762,US,US/Eastern,KNYC,2017-10-20 08:51:00,60.1,,53.0,30.17,9.0,West,5.8,,Clear,False,False,False,False,False,False,False,False,False,False,False,True,False,Day,Day,Day,Day
A-806874,MapQuest,201.0,2,2020-06-11 16:48:15,2020-06-11 17:42:04,33.464218,-112.341148,,,0.0,Accident on Dysart Rd at Mcdowell Rd.,,W McDowell Rd,R,Avondale,Maricopa,AZ,85392,US,US/Mountain,KGEU,2020-06-11 16:58:00,107.0,107.0,6.0,28.72,10.0,WSW,14.0,0.0,Fair,False,False,True,False,False,False,False,False,False,False,False,True,False,Day,Day,Day,Day
A-2484587,MapQuest,201.0,2,2017-11-11 18:00:15,2017-11-11 18:29:40,33.856079,-118.011261,,,0.0,Accident on CA-91 Westbound at Exit 23A Knott Ave.,,Knott Ave,R,Buena Park,Orange,CA,90620,US,US/Pacific,KFUL,2017-11-11 17:53:00,64.9,,70.0,29.97,10.0,WNW,4.6,,Scattered Clouds,False,False,False,False,False,False,False,False,False,False,False,False,False,Night,Night,Night,Day
A-468510,MapQuest,241.0,2,2017-06-03 17:23:22,2017-06-03 18:07:51,33.911575,-84.357521,,,0.00999999977648,Right lane blocked due to accident on GA-400 Southbound at Exit 4B I-285.,,GA-407 W,R,Atlanta,Fulton,GA,30342,US,US/Eastern,KPDK,2017-06-03 16:53:00,84.9,,48.0,29.95,10.0,East,3.5,,Mostly Cloudy,False,False,False,False,False,False,False,False,False,False,False,False,False,Day,Day,Day,Day
A-2368701,MapQuest,201.0,2,2018-01-12 01:42:16,2018-01-12 02:26:55,37.540226,-122.067368,,,0.0,Right hand shoulder blocked due to accident on CA-84 Eastbound at Exit 36 Paseo Padre Pkwy.,,CA-84 E,R,Newark,Alameda,CA,94560,US,US/Pacific,KPAO,2018-01-12 06:47:00,51.8,,100.0,30.37,2.0,Variable,3.5,,Fog,False,False,False,False,False,False,False,False,False,False,False,False,False,Night,Night,Night,Night
A-4148995,Bing,,2,2017-09-26 10:36:15,2017-09-26 16:36:15,28.342618,-81.435249,28.342589,-81.4352,0.004,At Flora Blvd - Accident.,,Flora Blvd,R,Kissimmee,Osceola,FL,34741,US,US/Eastern,KISM,2017-09-26 10:56:00,86.0,,61.0,29.96,10.0,Calm,,,Clear,False,False,True,False,False,False,False,False,False,False,False,False,False,Day,Day,Day,Day
A-484825,MapQuest,201.0,2,2017-06-06 16:46:11,2017-06-06 17:15:11,32.855129,-96.872643,,,0.00999999977648,Accident on Webb Chapel Ext Westbound near Starlight Rd.,2651.0,Webb Chapel Ext,R,Dallas,Dallas,TX,75220-5849,US,US/Central,KDAL,2017-06-06 16:53:00,93.9,,30.0,29.81,10.0,North,19.6,,Scattered Clouds,False,False,True,False,False,False,False,False,False,False,False,False,False,Day,Day,Day,Day
A-2858828,Bing,,2,2016-07-22 09:06:33,2016-07-22 15:06:33,37.5813,-122.32546,37.57938,-122.32339,0.174,At Poplar Ave/Exit 417 - Accident.,,Bayshore Fwy S,R,San Mateo,San Mateo,CA,94401,US,US/Pacific,KSFO,2016-07-22 08:56:00,61.0,,72.0,30.12,10.0,WNW,5.8,,Partly Cloudy,False,False,False,False,False,False,False,False,False,False,False,False,False,Day,Day,Day,Day
A-1417637,MapQuest,201.0,2,2019-05-20 06:49:01,2019-05-20 07:48:33,33.289558,-117.150124,,,1.80999994278,Exit ramp from I-15 Southbound at Exit 43 to Old Highway 395 shoulder blocked due to accident.,,Escondido Fwy S,R,Escondido,San Diego,CA,92026,US,US/Pacific,KCRQ,2019-05-20 06:47:00,57.0,57.0,82.0,29.52,1.0,NW,10.0,0.06,Heavy Rain,False,False,False,False,False,False,False,False,False,False,False,False,False,Day,Day,Day,Day
A-2657796,MapQuest,201.0,2,2017-08-03 12:23:02,2017-08-03 13:07:52,39.911942,-86.203026,,,0.0,Accident on 86th St at Township Line Rd.,,W 86th St,R,Indianapolis,Marion,IN,46268,US,US/Eastern,KEYE,2017-08-03 12:53:00,84.0,,58.0,30.01,10.0,SW,10.4,,Scattered Clouds,False,False,True,False,False,False,False,False,False,False,False,True,False,Day,Day,Day,Day
A-1904740,MapQuest,201.0,3,2018-09-22 17:52:52,2018-09-22 18:22:29,26.174116,-81.734749,,,0.0,Left lane blocked due to accident on I-75 Northbound after Exit 105 County Hwy-886 Golden Gate Pkwy.,,Golden Gate Pkwy,R,Naples,Collier,FL,34105,US,US/Eastern,KAPF,2018-09-22 17:53:00,81.0,,85.0,29.94,10.0,ESE,6.9,,Clear,False,False,False,False,False,False,False,False,False,False,False,False,False,Day,Day,Day,Day
A-2406248,MapQuest-Bing,201.0,3,2017-12-01 16:55:27,2017-12-01 17:25:12,37.629642,-122.428261,,,0.0,#3 lane blocked due to accident on I-380 Westbound at Exit 5 CA-82 El Camino Real.,,I-380 W,R,San Bruno,San Mateo,CA,94066,US,US/Pacific,KSFO,2017-12-01 16:56:00,55.0,,77.0,30.05,10.0,West,12.7,,Mostly Cloudy,False,False,False,False,False,False,False,False,False,False,False,False,False,Night,Day,Day,Day
A-1670272,MapQuest,201.0,2,2019-01-29 17:45:58,2019-01-29 18:15:44,37.6791,-77.590828,,,0.0,Accident on Avery Green Dr at Twin Hickory Rd.,5198.0,Twin Hickory Rd,R,Glen Allen,Henrico,VA,23059-5531,US,US/Eastern,KOFP,2019-01-29 17:54:00,39.0,34.0,89.0,29.87,7.0,WNW,6.9,0.01,Light Rain,False,False,False,False,False,False,False,False,False,False,False,False,False,Night,Day,Day,Day
A-560297,MapQuest,241.0,2,2020-11-21 20:34:37,2020-11-21 21:34:09,40.96991,-80.177902,,,0.0,Lane blocked due to accident on US-422 Westbound around Old Route 422.,4839.0,US Highway 422,L,New Castle,Lawrence,PA,16101-9377,US,US/Eastern,KUCP,2020-11-21 20:56:00,37.0,33.0,76.0,29.31,10.0,NE,5.0,0.0,Fair,False,False,False,False,False,False,False,False,False,False,False,False,False,Night,Night,Night,Night
A-447111,MapQuest,201.0,2,2017-05-17 11:23:33,2017-05-17 11:53:18,41.867638,-71.440659,,,0.0,Accident on Angell Rd at Woodward Rd.,561.0,Woodward Rd,R,North Providence,Providence,RI,02904-3145,US,US/Eastern,KSFZ,2017-05-17 10:56:00,82.0,,37.0,30.01,10.0,WSW,8.1,,Clear,False,False,False,False,False,False,False,False,False,False,False,False,False,Day,Day,Day,Day
A-2921658,Bing,,2,2017-05-26 11:31:57,2017-05-26 17:31:57,35.11962,-80.88122,35.11962,-80.88122,0.0,At US-521/South Blvd - Accident.,8698.0, South Blvd,L,Charlotte,Mecklenburg,NC,28273-6925,US,US/Eastern,KCLT,2017-05-26 11:52:00,73.9,,48.0,29.97,10.0,SSW,8.1,,Partly Cloudy,False,False,False,False,False,False,False,False,False,False,False,True,False,Day,Day,Day,Day
A-2935358,Bing,,2,2017-06-22 18:02:55,2017-06-23 00:02:55,40.83873,-73.93327,40.84187,-73.93139,0.238,At I-95/Amsterdam Ave/Exit 23 - Accident.,,Harlem River Dr N,R,New York,New York,NY,10032,US,US/Eastern,KNYC,2017-06-22 17:51:00,80.1,,52.0,29.9,10.0,South,8.1,,Clear,False,False,False,False,True,False,False,False,False,False,False,False,False,Day,Day,Day,Day
A-648367,MapQuest,201.0,3,2020-10-16 15:14:45,2020-10-16 17:06:48,40.587475,-111.900688,,,0.0,Lane blocked due to accident on I-15 Northbound at Exit 295 UT-209 9000.,,I-15 S,R,Sandy,Salt Lake,UT,84070,US,US/Mountain,KU42,2020-10-16 14:54:00,64.0,64.0,19.0,25.94,10.0,NW,3.0,0.0,Fair,False,False,False,False,False,False,False,False,False,False,False,False,False,Day,Day,Day,Day
A-3808072,Bing,,2,2019-10-17 07:27:00,2019-10-17 08:20:36,33.854085,-117.889319,33.854085,-117.889319,0.0,At State College Blvd - Accident.,,CA-91 E,R,Anaheim,Orange,CA,92806,US,US/Pacific,KFUL,2019-10-17 07:43:00,64.0,64.0,78.0,29.71,5.0,ENE,8.0,0.0,Partly Cloudy,False,False,False,False,False,False,False,False,False,False,False,False,False,Day,Day,Day,Day
A-4161598,Bing,,2,2017-08-23 08:32:15,2017-08-23 14:32:15,33.81225,-118.28748,33.80595,-118.28843,0.439,At Sepulveda Blvd - Accident.,,I-110 S,R,Torrance,Los Angeles,CA,90502,US,US/Pacific,KTOA,2017-08-23 08:47:00,68.0,,78.0,29.98,6.0,WNW,3.5,,Overcast,False,False,False,False,False,False,False,False,False,False,False,False,False,Day,Day,Day,Day
A-2686803,MapQuest,229.0,2,2017-08-17 17:01:22,2017-08-17 17:30:54,40.129185,-76.216011,,,0.0,Slow traffic due to accident on US-222 Southbound at PA-772 Newport Rd.,,Newport Rd,R,Ephrata,Lancaster,PA,17522,US,US/Eastern,KLNS,2017-08-17 16:53:00,84.0,,69.0,29.94,10.0,SSE,8.1,,Mostly Cloudy,False,False,False,False,False,False,False,False,False,False,False,False,False,Day,Day,Day,Day
A-2149925,MapQuest,201.0,2,2018-05-24 13:01:40,2018-05-24 13:30:57,45.580605,-122.428116,,,0.0,Right lane blocked due to accident on WA-14 Westbound near Exit 12 WA-14 Bus 6th Ave.,,SW 6th Ave,R,Camas,Clark,WA,98607,US,US/Pacific,KTTD,2018-05-24 12:53:00,69.1,,57.0,30.04,10.0,Variable,5.8,,Clear,False,False,False,False,False,False,False,False,False,False,False,False,False,Day,Day,Day,Day
A-1496585,MapQuest,201.0,2,2019-04-28 12:22:43,2019-04-28 12:52:27,35.1754,-80.813652,,,0.0,Accident on Andover Rd at Maybank Dr.,1626.0,Andover Rd,R,Charlotte,Mecklenburg,NC,28211-1814,US,US/Eastern,KCLT,2019-04-28 12:52:00,77.0,77.0,43.0,29.18,10.0,SW,10.0,0.0,Partly Cloudy,False,False,False,False,False,False,False,False,False,False,False,False,False,Day,Day,Day,Day
A-1174908,MapQuest,241.0,2,2019-09-20 08:20:54,2019-09-20 09:50:42,34.700745,-86.517509,,,0.0,Lane blocked due to accident on US-431 Northbound at Dug Hill Rd.,,Highway 431 S,R,Brownsboro,Madison,AL,35741,US,US/Central,KMDQ,2019-09-20 08:15:00,71.0,71.0,55.0,29.46,10.0,SE,10.0,0.0,Mostly Cloudy,False,False,False,False,False,False,False,False,False,False,False,False,False,Day,Day,Day,Day
A-1935838,MapQuest,201.0,2,2018-08-07 06:41:10,2018-08-07 07:13:00,39.743553,-104.917557,,,0.0,Accident on 17th Avenue Pkwy at Kearney St.,6098.0,E 17th Avenue Pkwy,R,Denver,Denver,CO,80220-1523,US,US/Mountain,KBKF,2018-08-07 05:58:00,58.1,,81.0,30.02,10.0,SSW,11.5,,Partly Cloudy,False,False,False,False,False,False,False,False,False,False,False,False,False,Day,Day,Day,Day
A-1751489,MapQuest,201.0,3,2018-11-08 23:15:13,2018-11-08 23:44:41,33.91975,-118.36998,,,0.519999980927,Exit ramp from I-405 Southbound at Exits 44 45A to El Segundo Blvd Southbound lane blocked due to accident.,,I-405 S,R,Hawthorne,Los Angeles,CA,90250,US,US/Pacific,KHHR,2018-11-08 22:53:00,61.0,,83.0,30.01,6.0,Calm,,,Haze,False,False,False,False,False,False,False,False,False,False,False,False,False,Night,Night,Night,Night
A-692330,MapQuest,201.0,3,2020-07-16 07:57:45,2020-07-16 12:05:00,25.900761,-80.350777,,,0.620000004768,Accident on exit ramp from I-75 Northbound at Exit 2 to NW 138th St.,8631.0,W 33rd Ave,R,Hialeah,Miami-Dade,FL,33018-1864,US,US/Eastern,KOPF,2020-07-16 07:53:00,80.0,80.0,79.0,30.05,10.0,N,3.0,0.0,Fair,False,False,False,False,False,False,False,False,False,False,False,False,False,Day,Day,Day,Day
A-382101,MapQuest,201.0,2,2017-03-16 17:06:12,2017-03-16 17:35:37,40.193619,-75.533623,,,0.01,Accident on Lewis Rd at Royersford Rd.,303.0,N Lewis Rd,L,Royersford,Montgomery,PA,19468-1508,US,US/Eastern,KPTW,2017-03-16 16:54:00,37.0,28.9,37.0,30.04,10.0,West,12.7,,Partly Cloudy,False,False,False,False,False,False,False,False,False,False,False,False,False,Day,Day,Day,Day
A-2658387,MapQuest,201.0,2,2017-08-03 13:02:00,2017-08-03 13:31:46,34.986523,-82.42231,,,0.0,Accident on US-25 at Meitra Ct.,610.0,N Highway 25,L,Travelers Rest,Greenville,SC,29690-9388,US,US/Eastern,KGMU,2017-08-03 12:53:00,87.1,,44.0,30.12,10.0,Variable,4.6,,Scattered Clouds,False,False,False,False,False,False,False,False,False,False,False,False,False,Day,Day,Day,Day
A-426645,MapQuest,201.0,3,2017-04-24 14:07:46,2017-04-24 14:37:38,39.250019,-76.67923,,,0.01,Accident on I-95 Southbound at Exits 49A 49B I-695.,,I-95 N,R,Halethorpe,Baltimore County,MD,21227,US,US/Eastern,KBWI,2017-04-24 13:54:00,57.0,,59.0,30.06,9.0,East,15.0,0.0,Light Rain,False,False,False,False,False,False,False,False,False,False,False,False,False,Day,Day,Day,Day
A-2271219,MapQuest,201.0,3,2018-03-24 19:05:45,2018-03-24 19:50:27,34.913952,-82.107651,,,0.0,Accident on I-85 Northbound at Exit 63 SC-290 Main St.,,E Main St,R,Duncan,Spartanburg,SC,29334,US,US/Eastern,KGSP,2018-03-24 19:17:00,46.9,,68.0,30.01,10.0,NE,10.4,0.0,Light Thunderstorms and Rain,False,False,False,False,False,False,False,False,False,False,False,False,False,Day,Day,Day,Day
A-983436,MapQuest,201.0,3,2019-12-26 08:31:41,2019-12-26 09:59:42,41.969074,-91.671761,,,0.0,Right lane blocked due to accident on I-380 Northbound at Exit 19A 3rd St.,248.0,8th Ave SW,R,Cedar Rapids,Linn,IA,52404,US,US/Central,KCID,2019-12-26 08:52:00,33.0,24.0,100.0,29.04,1.0,WNW,13.0,0.0,Fog,False,False,False,False,False,False,False,False,False,False,False,False,False,Day,Day,Day,Day
A-1052632,MapQuest,241.0,3,2019-10-11 05:28:42,2019-10-11 05:57:30,30.27849,-97.730003,,,0.0,One lane blocked due to accident on I-35 Frontage Rd Southbound at Martin Luther King Jr Blvd.,,I-35 S,R,Austin,Travis,TX,78702,US,US/Central,KATT,2019-10-11 05:13:00,57.0,57.0,87.0,29.29,10.0,NNW,8.0,0.01,Light Rain,False,False,False,False,True,False,False,False,False,False,False,False,False,Night,Night,Night,Night
A-3807247,Bing,,2,2019-10-17 10:40:20,2019-10-17 11:07:39,41.74483,-87.8385,41.74632,-87.84263,0.236,At IL-171/Archer Ave - Accident.,,S 88th Ave,R,Justice,Cook,IL,60458,US,US/Central,KMDW,2019-10-17 10:53:00,50.0,50.0,61.0,29.39,10.0,WNW,10.0,0.0,Mostly Cloudy,False,False,False,False,False,False,False,False,False,False,False,False,False,Day,Day,Day,Day
A-2264458,MapQuest,201.0,2,2018-03-21 19:43:30,2018-03-21 20:12:56,29.785072,-95.688339,,,0.0,Right hand center lane blocked and right hand shoulder blocked due to accident on I-10 Westbound after Barker Cypress Rd.,,Barker Cypress Rd,R,Houston,Harris,TX,77094,US,US/Central,KSGR,2018-03-21 19:53:00,66.0,,37.0,30.19,10.0,South,10.4,,Clear,False,False,False,False,False,False,False,False,False,False,False,False,False,Night,Day,Day,Day
A-1729296,MapQuest,201.0,2,2018-10-31 07:41:08,2018-10-31 08:26:00,39.026398,-94.636421,,,0.0,Accident on US-169 Shawnee Mission Pkwy Southbound at US-56 Shawnee Mission Pkwy.,4528.0,Shawnee Mission Pkwy,R,Fairway,Johnson,KS,66205-2509,US,US/Central,KNKA,2018-10-31 07:16:00,,,,,,North,,,,False,False,False,False,False,False,False,False,False,False,False,False,False,Night,Day,Day,Day
A-1402846,MapQuest,201.0,3,2019-05-13 20:12:31,2019-05-13 21:11:08,30.379753,-83.297668,,,20.4899997711,Right hand shoulder blocked due to accident on I-10 Westbound between Exit 275 US-90 and Exit 262 CR-255.,,County Road 255,R,Lee,Madison,FL,32059,US,US/Eastern,KVLD,2019-05-13 19:53:00,78.0,78.0,68.0,29.6,10.0,CALM,0.0,0.0,Fair,False,False,False,False,False,False,False,False,False,False,False,False,False,Day,Day,Day,Day
A-965106,MapQuest,201.0,2,2020-02-21 07:54:31,2020-02-21 08:54:16,34.84293,-82.29306,,,0.0,Accident on Roper Mountain Rd at Oak Grove Lake Rd.,1077.0,Roper Mountain Rd,L,Greenville,Greenville,SC,29615-4460,US,US/Eastern,KGMU,2020-02-21 07:53:00,33.0,27.0,61.0,29.28,10.0,N,7.0,0.0,Fair,False,False,False,False,False,False,False,False,False,False,False,False,False,Day,Day,Day,Day
A-2738158,Bing,,2,2016-11-30 11:59:47,2016-11-30 17:59:47,32.90745,-96.90734,32.907491,-96.905585,0.102,At I-35E/Exit 27 - Accident.,,LBJ Fwy E,R,Dallas,Dallas,TX,75234,US,US/Central,KADS,2016-11-30 11:47:00,,,,30.08,13.0,NW,11.5,,Clear,False,False,False,False,False,False,False,False,False,False,False,False,False,Day,Day,Day,Day
A-30407,MapQuest,201.0,2,2016-09-07 16:18:46,2016-09-07 16:50:00,37.991333,-121.641106,,,0.0,Accident on Cypress Rd at Bethel Island Rd.,3095.0,E Cypress Rd,R,Oakley,Contra Costa,CA,94561,US,US/Pacific,KCCR,2016-09-07 15:53:00,96.1,,15.0,29.83,10.0,Variable,4.6,,Clear,False,False,False,False,False,False,False,False,False,False,False,False,False,Day,Day,Day,Day
A-3368329,Bing,,2,2020-11-03 07:17:00,2020-11-03 08:52:54,25.548039,-80.372081,25.547246,-80.372075,0.055,Incident on SW 112TH AVE near SW 236TH ST Drive with caution.,11199.0, SW 236th St,L,Homestead,Miami-Dade,FL,33032,US,US/Eastern,KHST,2020-11-03 06:56:00,73.0,73.0,67.0,30.07,10.0,NE,17.0,0.0,Fair,False,False,False,False,False,False,False,False,False,False,False,False,False,Day,Day,Day,Day
A-1226032,MapQuest,201.0,3,2019-08-20 16:38:29,2019-08-20 17:08:11,44.491631,-73.173035,,,0.0,Accident on I-89 Northbound at Exit 15 VT-15 Allen St.,,I-89 N,R,Winooski,Chittenden,VT,05404,US,US/Eastern,KBTV,2019-08-20 16:54:00,83.0,83.0,37.0,29.66,10.0,S,6.0,0.0,Fair,False,False,False,False,False,False,False,False,False,False,False,False,False,Day,Day,Day,Day
A-2146028,MapQuest,201.0,3,2018-05-23 09:34:14,2018-05-23 10:33:54,27.269096,-82.449173,,,0.0,Left lane blocked due to accident on I-75 Southbound at Exit 205 FL-72 Clark Rd.,,I-75 S,R,Sarasota,Sarasota,FL,34241,US,US/Eastern,KSRQ,2018-05-23 09:53:00,80.1,,76.0,30.09,10.0,SE,9.2,,Clear,False,False,False,False,False,False,False,False,False,False,False,False,False,Day,Day,Day,Day
A-885303,MapQuest,201.0,2,2020-01-08 18:27:33,2020-01-08 19:27:26,34.903919,-82.19223,,,0.0,Accident on SC-101 at Brockman Mcclimon Rd.,,Highway 101 S,R,Greer,Spartanburg,SC,29651,US,US/Eastern,KGSP,2020-01-08 18:53:00,49.0,49.0,44.0,29.35,10.0,CALM,0.0,0.0,Fair,False,False,False,False,False,False,False,False,False,False,False,False,False,Night,Night,Day,Day
A-670451,MapQuest,201.0,3,2020-10-30 14:57:02,2020-10-30 15:41:27,29.509932,-95.118317,,,0.0,Left right and center lane blocked due to accident on I-45 Gulf Fwy Southbound at FM-518.,,I-45 S,R,Webster,Harris,TX,77598,US,US/Central,KEFD,2020-10-30 14:50:00,66.0,66.0,43.0,30.17,10.0,CALM,0.0,,Fair,False,False,False,False,False,False,False,False,False,False,False,False,False,Day,Day,Day,Day
A-3861581,Bing,,2,2019-09-25 16:35:00,2019-09-25 19:30:37,34.141297,-117.252434,34.141297,-117.252434,0.0,At CA-210/Foothill Fwy - Accident.,2742.0, Del Rosa Ave,L,San Bernardino,San Bernardino,CA,92404-4439,US,US/Pacific,KSBD,2019-09-25 16:50:00,90.0,90.0,21.0,28.54,6.0,W,9.0,0.0,Haze,False,False,True,False,False,False,False,False,False,False,False,True,False,Day,Day,Day,Day
A-2051045,MapQuest,201.0,3,2018-06-07 12:47:26,2018-06-07 13:47:06,41.680817,-72.653656,,,0.0,Accident on I-91 Southbound at Exit 24 CT-99 Silas Deane Hwy.,,I-91 S,R,Rocky Hill,Hartford,CT,06067,US,US/Eastern,KHFD,2018-06-07 12:53:00,69.1,,58.0,30.12,10.0,South,10.4,,Mostly Cloudy,False,False,False,False,False,False,False,False,False,False,False,False,False,Day,Day,Day,Day
A-3443178,Bing,,2,2020-05-25 15:11:18,2020-05-25 15:41:18,39.92853,-76.82307,39.92819,-76.85594,1.742,At Biesecker Rd - Accident.,,S Salem Church Rd,R,York,York,PA,17408,US,US/Eastern,KTHV,2020-05-25 15:16:00,73.0,73.0,64.0,29.67,10.0,VAR,5.0,0.0,Partly Cloudy,False,False,False,False,False,False,False,False,False,False,False,True,False,Day,Day,Day,Day
A-2517986,MapQuest,201.0,3,2017-11-29 07:13:27,2017-11-29 07:57:55,30.320988,-81.699905,,,0.0,Right hand shoulder blocked due to accident on I-10 Eastbound before Exit 361 US-17.,,US-17 S,R,Jacksonville,Duval,FL,32254,US,US/Eastern,KNIP,2017-11-29 06:53:00,63.0,,93.0,30.22,10.0,NNW,9.2,,Clear,False,False,False,False,False,False,False,False,False,False,False,False,False,Day,Day,Day,Day
A-2044083,MapQuest,201.0,2,2018-06-04 11:21:33,2018-06-04 12:05:47,40.289631,-83.068527,,,0.140000000596,Accident on Sandusky St between London Rd and Wootring St.,285.0,S Sandusky St,L,Delaware,Delaware,OH,43015-2683,US,US/Eastern,KDLZ,2018-06-04 11:14:00,66.2,,56.0,29.97,10.0,WNW,16.1,,Mostly Cloudy,False,False,False,False,False,False,False,False,False,False,False,False,False,Day,Day,Day,Day
A-2727342,Bing,,2,2016-05-29 08:26:23,2016-05-29 14:26:23,34.03725,-118.31457,34.03711,-118.31771,0.18,Ramp to Exit 11 - Accident.,,I-10 W,R,Los Angeles,Los Angeles,CA,90018,US,US/Pacific,KCQT,2016-05-29 08:47:00,63.0,,72.0,30.01,10.0,Calm,,,Overcast,False,False,False,False,False,False,False,False,False,False,False,False,False,Day,Day,Day,Day
A-3574732,Bing,,2,2020-03-11 21:22:00,2020-03-12 00:15:15,44.97327,-93.4006,44.97327,-93.4006,0.0,At US-169/Exit 3 - Accident.,,US-169 S,R,Minneapolis,Hennepin,MN,55426,US,US/Central,KMIC,2020-03-11 20:53:00,41.0,35.0,76.0,28.84,10.0,SSE,9.0,0.0,Mostly Cloudy,False,False,False,False,True,False,False,False,False,False,False,False,False,Night,Night,Night,Night
A-1828661,MapQuest,201.0,2,2018-10-17 07:01:05,2018-10-17 07:30:28,30.36763,-97.742798,,,0.0,Accident on MoPac Expy Southbound at Steck Ave.,,Mopac Expy S,R,Austin,Travis,TX,78759,US,US/Central,KATT,2018-10-17 06:51:00,50.0,,93.0,30.25,10.0,Variable,3.5,0.0,Light Rain,False,False,False,False,False,False,False,False,False,False,False,False,False,Night,Night,Day,Day
A-2457336,MapQuest,201.0,3,2017-12-28 08:29:59,2017-12-28 09:14:36,29.031281,-82.159157,,,0.0,Right hand shoulder blocked due to accident on I-75 Northbound at Exit 341 FL-484 135th St.,,I-75 N,R,Ocala,Marion,FL,34473,US,US/Eastern,KOCF,2017-12-28 08:51:00,55.0,,86.0,30.32,10.0,NNE,8.1,,Overcast,False,False,False,False,False,False,False,False,False,False,False,False,False,Day,Day,Day,Day
A-1301076,MapQuest,201.0,2,2019-07-31 18:37:04,2019-07-31 19:51:51,32.598461,-80.992683,,,0.0,Accident on US-278 Grays Hwy at SC-462 Morgandollar Rd.,9469.0,Grays Hwy,R,Ridgeland,Jasper,SC,29936-3961,US,US/Eastern,KNBC,2019-07-31 18:56:00,88.0,88.0,61.0,29.98,10.0,S,7.0,0.0,Mostly Cloudy,False,False,False,False,False,False,False,False,False,False,False,False,False,Day,Day,Day,Day
A-82580,MapQuest,201.0,3,2016-10-08 16:31:55,2016-10-08 17:31:41,33.891068,-118.36132,,,0.0,Accident on I-405 Northbound at Exit 42B Inglewood Ave.,,I-405 N,R,Lawndale,Los Angeles,CA,90260,US,US/Pacific,KHHR,2016-10-08 16:53:00,78.1,,40.0,29.87,10.0,WSW,11.5,,Clear,False,False,True,False,False,False,False,False,False,False,False,False,False,Day,Day,Day,Day
A-3290090,Bing,,2,2020-11-02 02:56:20,2020-11-02 04:11:21,45.845886,-108.466187,45.846242,-108.46622,0.025,Incident on US-87 near PINE RIDGE LN Drive with caution.,2580.0, US Highway 87 N,L,Billings,Yellowstone,MT,59105-4533,US,US/Mountain,KBIL,2020-11-02 02:53:00,47.0,42.0,42.0,26.53,10.0,SW,10.0,0.0,Fair,False,False,False,False,False,False,False,False,False,False,False,False,False,Night,Night,Night,Night
A-846299,MapQuest,201.0,3,2020-03-26 06:11:49,2020-03-26 06:41:08,40.637775,-111.808998,,,0.0,Center lane blocked due to accident on I-215 Northbound at 6200 S.,,E 6200 S,R,Salt Lake City,Salt Lake,UT,84121,US,US/Mountain,KU42,2020-03-26 06:16:00,32.0,24.0,100.0,25.53,4.0,NW,9.0,0.0,Light Snow,False,False,False,False,False,False,False,False,False,False,False,False,False,Night,Night,Night,Day
A-2531885,MapQuest,201.0,2,2017-10-06 15:27:55,2017-10-06 15:57:39,42.998756,-85.592728,,,0.0,Accident on Celebration Dr near Knapp St.,2000.0,Celebration Dr NE,R,Grand Rapids,Kent,MI,49525-9592,US,US/Eastern,KGRR,2017-10-06 15:53:00,66.9,,81.0,29.98,10.0,ESE,8.1,0.0,Light Rain,False,False,True,False,False,False,False,False,False,False,False,True,False,Day,Day,Day,Day
A-1626760,MapQuest,201.0,2,2019-01-07 18:58:24,2019-01-07 19:27:15,33.597294,-112.009476,,,0.0,Accident on AZ-51 Northbound at Exit 10 Cactus Rd.,,Piestewa Fwy N,R,Phoenix,Maricopa,AZ,85032,US,US/Mountain,KSDL,2019-01-07 18:53:00,55.9,,53.0,30.19,10.0,Calm,,,Clear,False,False,True,True,False,False,False,False,False,False,False,True,False,Night,Night,Night,Day
A-2826558,Bing,,4,2016-04-22 14:03:08,2016-04-22 20:03:08,41.63487,-85.051945,41.63495,-85.0464,0.286,Closed at I-69/US-27 - Road closed due to accident.,3164.0, W US Highway 20,R,Angola,Steuben,IN,46703-8655,US,US/Eastern,KANQ,2016-04-22 13:55:00,57.2,,67.0,29.96,7.0,South,5.8,,Overcast,True,False,False,False,False,False,False,False,False,False,False,False,False,Day,Day,Day,Day
A-1431469,MapQuest,201.0,2,2019-05-28 17:35:15,2019-05-28 19:04:54,32.382481,-86.184471,,,0.0,Accident on AL-126 Atlanta Hwy at Ashton Rd.,,Ashton Cir,R,Montgomery,Montgomery,AL,36117,US,US/Central,KMXF,2019-05-28 17:56:00,93.0,93.0,40.0,29.71,10.0,SSW,3.0,0.0,Fair,False,False,False,False,False,False,False,False,False,False,False,False,False,Day,Day,Day,Day
A-832597,MapQuest-Bing,201.0,2,2020-03-13 12:22:36,2020-03-13 13:27:34,34.093311,-118.206268,,,0.0,#3 lane blocked due to accident on CA-110 Northbound at Exit 27 Avenue 43.,,E Avenue 43,R,Los Angeles,Los Angeles,CA,90031,US,US/Pacific,KCQT,2020-03-13 12:05:00,57.0,57.0,81.0,29.73,5.0,CALM,0.0,0.01,Cloudy,False,False,False,False,False,False,False,False,False,False,False,False,False,Day,Day,Day,Day
A-2159380,MapQuest,201.0,3,2018-05-30 12:45:53,2018-05-30 13:30:08,25.847122,-80.207489,,,0.0,Left lane blocked due to accident on I-95 Northbound after Exit 7 FL-934 79th St.,,NW 79th St,R,Miami,Miami-Dade,FL,33150,US,US/Eastern,KOPF,2018-05-30 12:53:00,86.0,,70.0,30.02,10.0,SSE,17.3,,Mostly Cloudy,False,False,False,False,False,False,False,False,False,False,False,False,False,Day,Day,Day,Day
A-1099185,MapQuest,201.0,3,2019-11-03 06:04:23,2019-11-03 07:03:46,29.785021,-95.750526,,,0.0,Right and center lane blocked and right hand shoulder blocked due to accident on I-10 Westbound at Exit 746.,,I-10 E,R,Katy,Harris,TX,77450,US,US/Central,KSGR,2019-11-03 05:53:00,41.0,41.0,96.0,30.18,10.0,CALM,0.0,0.0,Fair,False,False,False,False,False,False,False,False,False,False,False,False,False,Night,Night,Day,Day
A-645072,MapQuest,201.0,2,2020-10-15 05:21:47,2020-10-15 07:03:00,40.043629,-76.313683,,,0.0,Accident on Lemon St at Charlotte St.,377.0,N Charlotte St,R,Lancaster,Lancaster,PA,17603-2901,US,US/Eastern,KLNS,2020-10-15 04:53:00,53.0,53.0,80.0,29.54,10.0,ENE,3.0,0.0,Fair,False,False,True,False,False,False,False,False,True,False,False,True,False,Night,Night,Night,Night
A-1653028,MapQuest,241.0,2,2019-01-21 07:09:22,2019-01-21 07:37:53,27.067865,-81.958199,,,0.0,Lane blocked due to accident on US-17 Southbound at CR-761.,10598.0,SW Highway 17,L,Arcadia,DeSoto,FL,34269-2405,US,US/Eastern,KPGD,2019-01-21 06:53:00,37.0,32.4,89.0,30.27,10.0,North,5.8,,Clear,False,False,False,False,False,False,False,False,False,False,False,False,False,Night,Day,Day,Day
A-2121460,MapQuest,201.0,3,2018-05-11 18:39:28,2018-05-11 19:09:12,37.606243,-77.522011,,,0.0,Right hand shoulder blocked due to accident on I-64 Eastbound at Exits 183 183A VA-7536 Glenside Dr.,,Glenside Dr,R,Richmond,Henrico,VA,23226,US,US/Eastern,KOFP,2018-05-11 18:54:00,82.9,,46.0,29.99,8.0,ESE,4.6,,Scattered Clouds,False,False,False,False,True,False,False,False,False,False,False,False,False,Day,Day,Day,Day
A-1992196,MapQuest,201.0,2,2018-07-05 17:14:06,2018-07-05 17:43:38,29.427565,-98.487633,,,0.0,Accident on Broadway St at Travis St.,437.0,E Travis St,L,San Antonio,Bexar,TX,78205,US,US/Central,KSSF,2018-07-05 16:53:00,93.0,,45.0,30.09,10.0,East,11.5,,Mostly Cloudy,False,False,False,False,False,False,False,False,False,False,False,True,False,Day,Day,Day,Day
A-25981,MapQuest,247.0,2,2016-08-05 14:41:11,2016-08-05 15:11:11,37.384075,-121.995773,,,0.0,Delays due to accident on County Hwy-G2 Lawrence Expy Northbound at Titan Way.,1201.0,Titan Way,L,Sunnyvale,Santa Clara,CA,94085,US,US/Pacific,KNUQ,2016-08-05 14:56:00,72.0,,57.0,29.91,10.0,North,15.0,,Clear,False,False,False,False,False,False,False,False,False,False,False,False,False,Day,Day,Day,Day
A-2341957,MapQuest,201.0,2,2018-02-27 10:26:02,2018-02-27 11:10:29,32.525223,-93.75872,,,0.0,Accident on US-71 Market St at LA-3036 Common St.,738.0,N Market St,L,Shreveport,Caddo,LA,71107-6730,US,US/Central,KDTN,2018-02-27 10:31:00,66.0,,70.0,30.17,10.0,SE,17.3,,Mostly Cloudy,False,False,False,False,False,False,False,False,False,False,False,True,False,Day,Day,Day,Day
A-3364799,Bing,,2,2020-12-27 07:01:00,2020-12-28 07:40:24,34.017981,-117.527285,34.018075,-117.524709,0.148,Incident on CA-60 EB near VAN BUREN BLVD Drive with caution.,,Mission Blvd,R,Mira Loma,Riverside,CA,91752,US,US/Pacific,KRAL,2020-12-27 06:53:00,47.0,47.0,83.0,29.17,10.0,CALM,0.0,0.0,Mostly Cloudy,False,False,False,False,False,False,False,False,False,False,False,False,False,Day,Day,Day,Day
A-1100857,MapQuest,201.0,2,2019-11-04 11:07:14,2019-11-04 13:12:23,30.322901,-97.728271,,,0.0,Accident on Lamar Blvd near Nelray Blvd.,5426.0,N Lamar Blvd,L,Austin,Travis,TX,78751-1825,US,US/Central,KATT,2019-11-04 10:51:00,73.0,73.0,57.0,29.33,10.0,VAR,5.0,0.0,Fair,False,False,False,False,False,False,False,False,True,False,False,False,False,Day,Day,Day,Day
A-3138326,Bing,,2,2020-11-23 14:06:30,2020-11-23 14:35:30,33.932271,-118.347404,33.932456,-118.360764,0.766,Slow traffic on I-105 W - Glenn Anderson Fwy W from exit [3] to exit [2B] due to accident.,,Glenn Anderson Fwy W,R,Inglewood,Los Angeles,CA,90304,US,US/Pacific,KHHR,2020-11-23 13:53:00,62.0,,65.0,29.81,6.0,,,0.0,Haze,False,False,False,False,False,False,False,False,False,False,False,False,False,Day,Day,Day,Day
A-970549,MapQuest,201.0,3,2020-02-25 09:14:23,2020-02-25 10:24:00,37.67112,-77.581039,,,0.0,Right hand shoulder blocked due to accident on I-295 Northbound at Exits 51A 51B Nuckols Rd.,,I-295 N,R,Glen Allen,Henrico,VA,23059,US,US/Eastern,KOFP,2020-02-25 09:19:00,49.0,49.0,93.0,29.64,2.0,CALM,0.0,0.04,Light Rain,False,False,False,False,False,False,False,False,False,False,False,False,False,Day,Day,Day,Day
A-444343,MapQuest,201.0,3,2017-05-15 10:54:58,2017-05-15 11:24:30,41.496887,-95.060173,,,4.71000003815,Accident on I-80 Westbound between Exit 57 County Hwy-N16 Olive St and Exit 54 IA-173 590th St.,50789.0,590th St,L,Atlantic,Cass,IA,50022-8231,US,US/Central,KAIO,2017-05-15 10:55:00,80.6,,58.0,29.76,10.0,SSW,15.0,,Clear,False,False,False,False,False,False,False,False,False,False,False,False,False,Day,Day,Day,Day
A-717733,MapQuest,245.0,3,2020-08-06 17:53:07,2020-08-06 18:52:45,25.81282,-80.207146,,,0.0,Two lanes blocked due to accident on I-95 Southbound after I-195.,,Airport Expy W,R,Miami,Miami-Dade,FL,33127,US,US/Eastern,KMIA,2020-08-06 17:53:00,84.0,84.0,74.0,29.99,10.0,SE,5.0,0.16,Mostly Cloudy,False,False,False,False,False,False,False,False,False,False,False,False,False,Day,Day,Day,Day
A-2737914,Bing,,2,2016-11-28 08:47:48,2016-11-28 14:47:48,45.04212,-93.10123,45.05622,-93.13124,1.759,Between MN-49/Rice St/Exit 45 and Victoria St/Exit 43B - Accident.,,I-694 W,R,Saint Paul,Ramsey,MN,55127,US,US/Central,KANE,2016-11-28 08:45:00,53.6,,82.0,29.06,10.0,SSE,17.3,,Overcast,False,False,False,False,True,False,False,False,False,False,False,False,False,Day,Day,Day,Day
A-77747,MapQuest,201.0,3,2016-09-16 19:46:43,2016-09-16 20:31:43,34.029751,-118.405449,,,0.0,Right hand shoulder blocked due to accident on I-10 Eastbound before Exit 5 Manning Ave.,,I-10 E,R,Los Angeles,Los Angeles,CA,90034,US,US/Pacific,KSMO,2016-09-16 19:51:00,68.0,,78.0,29.9,10.0,WSW,4.6,,Mostly Cloudy,False,False,False,False,False,False,False,False,False,False,False,False,False,Night,Night,Day,Day
A-3565870,Bing,,1,2020-06-20 15:56:12,2020-06-20 16:26:12,35.16338,-80.75322,35.16338,-80.75322,0.0,At Sardis Rd N - Accident investigation work.,7731.0, Monroe Rd,L,Charlotte,Mecklenburg,NC,28212-7111,US,US/Eastern,KCLT,2020-06-20 15:52:00,82.0,82.0,49.0,29.23,10.0,NE,5.0,0.0,Mostly Cloudy,False,False,False,False,False,False,False,False,False,False,False,True,False,Day,Day,Day,Day
A-3637429,Bing,,3,2020-04-13 10:41:15,2020-04-13 11:09:42,37.64605,-77.59182,37.63719,-77.57883,0.938,At Gaskins Rd/Exit 180 - Accident.,,I-64 E,R,Henrico,Henrico,VA,23233,US,US/Eastern,KOFP,2020-04-13 10:43:00,70.0,70.0,84.0,29.32,10.0,S,14.0,0.0,Mostly Cloudy,False,False,False,False,False,False,False,False,False,False,False,False,False,Day,Day,Day,Day
A-3187816,Bing,,2,2020-12-07 18:37:25,2020-12-07 19:54:31,29.827906,-97.985526,29.827747,-97.985702,0.015,Incident on I-35 SB near CENTERPOINT RD Expect long delays.,,I-35 S,R,San Marcos,Hays,TX,78666,US,US/Central,KHYI,2020-12-07 18:56:00,49.0,47.0,43.0,29.58,10.0,NE,6.0,0.0,Fair,False,False,False,False,False,False,False,False,False,False,False,True,False,Night,Night,Night,Day
A-3977831,Bing,,2,2018-10-05 06:19:08,2018-10-05 10:19:08,45.50682,-122.67098,45.50905,-122.66732,0.235,At Marquam Bridge - Accident.,,I-5 N,R,Portland,Multnomah,OR,97201,US,US/Pacific,KPDX,2018-10-05 05:53:00,46.9,,77.0,30.1,10.0,SE,4.6,,Overcast,False,False,False,False,True,False,False,False,False,False,False,False,False,Night,Night,Day,Day
A-4133692,Bing,,2,2017-10-16 07:24:22,2017-10-16 13:24:22,38.96269,-76.86719,38.95947,-76.86626,0.228,At MD-450/Annapolis Rd/Exit 20 - Accident. Right lane blocked.,,Capital Beltway S,R,Hyattsville,Prince George's,MD,20784,US,US/Eastern,KCGS,2017-10-16 07:25:00,58.1,,96.0,29.99,10.0,Calm,,,Scattered Clouds,False,False,False,False,False,False,False,False,False,False,False,False,False,Day,Day,Day,Day
A-1123144,MapQuest,201.0,3,2019-11-14 10:04:19,2019-11-14 10:37:00,42.547718,-83.788818,,,0.0,Right lane blocked due to accident on I-96 Westbound at Exit 145 Grand River Ave.,,I-96 W,R,Brighton,Livingston,MI,48114,US,US/Eastern,KOZW,2019-11-14 09:56:00,27.0,19.0,84.0,29.14,7.0,SW,8.0,0.0,Cloudy,False,False,False,False,False,False,False,False,False,False,False,False,False,Day,Day,Day,Day
A-3378223,Bing,,2,2020-10-21 16:50:08,2020-10-21 18:08:13,39.005852,-77.074016,39.013372,-77.045026,1.641,Incident on I-495 EB near EXIT 33 Drive with caution.,,Capital Beltway E,R,Chevy Chase,Montgomery,MD,20815,US,US/Eastern,KCGS,2020-10-21 16:55:00,75.0,75.0,69.0,30.14,10.0,S,3.0,0.0,Fair,False,False,False,False,False,False,False,False,False,False,False,False,False,Day,Day,Day,Day
A-1285539,MapQuest,201.0,2,2019-07-22 06:58:59,2019-07-22 07:28:39,37.364048,-121.90155,,,0.0,Right hand shoulder blocked due to accident on US-101 Northbound at I-880 .,,Bayshore Fwy S,R,San Jose,Santa Clara,CA,95112,US,US/Pacific,KSJC,2019-07-22 06:53:00,64.0,64.0,87.0,29.89,10.0,WNW,3.0,0.0,Fair,False,False,False,False,True,False,False,False,False,False,False,False,False,Day,Day,Day,Day
A-3317478,Bing,,2,2020-12-26 13:17:00,2020-12-26 14:36:03,37.170115,-121.989626,37.172516,-121.991664,0.2,Incident on CA-17 NB near IDYLWILD RD Drive with caution.,20500.0, Santa Cruz Hwy,L,Los Gatos,Santa Clara,CA,95033,US,US/Pacific,KSJC,2020-12-26 12:53:00,57.0,57.0,67.0,30.2,10.0,NNW,6.0,0.0,Mostly Cloudy,False,False,True,False,False,False,False,False,False,False,False,True,False,Day,Day,Day,Day
A-2565233,MapQuest,201.0,2,2017-10-23 06:20:30,2017-10-23 07:04:44,35.173286,-80.706848,,,0.0,Accident on Margaret Wallace Rd at Idlewild Rd.,9801.0,Idlewild Rd,R,Matthews,Mecklenburg,NC,28105-3725,US,US/Eastern,KEQY,2017-10-23 06:41:00,66.0,,100.0,30.1,10.0,ESE,5.8,,Overcast,False,False,False,False,False,False,False,False,False,False,False,True,False,Night,Night,Night,Day
A-2944062,Bing,,2,2017-07-14 19:38:22,2017-07-15 01:38:22,39.923297,-104.987616,39.92618,-104.987644,0.199,At 136th Ave - Accident.,,US-87 N,R,Thornton,Adams,CO,80241,US,US/Mountain,KEIK,2017-07-14 19:34:00,80.2,,32.0,30.26,10.0,North,,,Clear,False,False,False,False,False,False,False,False,False,False,False,False,False,Day,Day,Day,Day
A-2637027,MapQuest,201.0,2,2017-09-26 17:48:55,2017-09-26 18:18:40,38.080727,-84.538658,,,0.0,Accident on Mercer Rd between Greendale Rd and Westhampton Dr.,199.0,Westhampton Dr,R,Lexington,Fayette,KY,40511-1077,US,US/Eastern,KLEX,2017-09-26 17:54:00,86.0,,46.0,29.95,10.0,South,4.6,,Clear,False,False,False,False,False,False,False,False,False,False,False,False,False,Day,Day,Day,Day
A-2677266,MapQuest,201.0,2,2017-08-12 06:03:30,2017-08-12 06:32:51,36.255348,-120.103561,,,0.0,Accident on CA-269 Lassen Ave Northbound before CA-198 Dorris Ave.,32999.0,S Lassen Ave,L,Huron,Fresno,CA,93234,US,US/Pacific,KNLC,2017-08-12 05:56:00,64.0,,63.0,29.85,10.0,West,6.9,,Clear,True,False,False,False,False,False,False,False,False,False,False,False,False,Night,Day,Day,Day
A-2588265,MapQuest,201.0,2,2017-09-04 11:56:35,2017-09-04 12:25:48,32.247494,-80.832085,,,0.0,Accident on US-278 Fording Island Rd at Sawmill Creek Rd.,,Sawmill Creek Rd,R,Bluffton,Beaufort,SC,29910,US,US/Eastern,KHXD,2017-09-04 11:50:00,82.4,,74.0,30.12,10.0,WNW,3.5,,Mostly Cloudy,False,False,False,False,False,False,False,False,False,False,False,True,False,Day,Day,Day,Day
A-3966860,Bing,,3,2018-11-17 01:03:12,2018-11-17 01:32:35,37.77401,-79.99629,37.77325,-79.99321,0.176,At VA-154/Exit 14 - Accident. Ramp restrictions.,,I-64 E,R,Covington,Covington,VA,24426,US,US/Eastern,KHSP,2018-11-17 00:55:00,32.0,,100.0,30.04,5.0,Calm,,,Overcast,False,False,False,False,True,False,False,False,False,False,False,False,False,Night,Night,Night,Night
A-871470,MapQuest,201.0,2,2020-04-28 08:20:43,2020-04-28 09:38:09,37.608608,-77.476784,,,0.0,Accident on Summit Ct at Cedar Croft St.,5903.0,Cedar Croft St,R,Henrico,Henrico,VA,23228,US,US/Eastern,KOFP,2020-04-28 07:54:00,49.0,47.0,74.0,30.0,10.0,SSW,5.0,0.0,Fair,False,False,False,False,False,False,False,False,False,False,False,False,False,Day,Day,Day,Day
A-2276824,MapQuest,201.0,3,2018-03-28 16:03:34,2018-03-28 16:48:16,38.275505,-85.810318,,,2.01999998093,Right hand shoulder blocked due to accident on I-64 Eastbound between Exit 123 Spring St and Exit 1 I-264.,,US-150 E,R,Louisville,Jefferson,KY,40212,US,US/Eastern,KSDF,2018-03-28 15:56:00,61.0,,93.0,29.91,4.0,WNW,6.9,0.01,Light Rain,False,False,False,False,False,False,False,False,False,False,False,False,False,Day,Day,Day,Day
A-1787291,MapQuest,201.0,2,2018-11-27 06:45:11,2018-11-27 07:13:51,38.757217,-111.425209,,,0.0,Accident on I-70 Eastbound before Exit 86 UT-76.,,UT-76,R,Richfield,Sevier,UT,84701,US,US/Mountain,KU24,2018-11-27 06:35:00,27.0,27.0,86.0,25.37,10.0,CALM,0.0,,Cloudy,False,False,False,False,False,False,False,False,False,False,False,False,False,Night,Night,Day,Day
A-1401962,MapQuest,201.0,2,2019-05-13 09:39:01,2019-05-13 10:54:46,39.865982,-75.03846,,,0.0,Accident on US-30 White Horse Pike at New Jersey Turnpike.,,New Jersey Tpke N,R,Lawnside,Camden,NJ,08045,US,US/Eastern,KVAY,2019-05-13 09:40:00,49.0,45.0,90.0,29.78,5.0,ENE,8.0,0.05,Light Rain,False,False,False,False,False,False,False,False,False,False,False,False,False,Day,Day,Day,Day
A-730551,MapQuest,201.0,2,2020-08-17 07:42:16,2020-08-17 08:41:44,34.068432,-81.13887,,,0.0,Accident on SC-67 Piney Grove Rd at Fernandina Rd.,,Piney Grove Rd,R,Columbia,Richland,SC,29212,US,US/Eastern,KCAE,2020-08-17 07:56:00,72.0,72.0,87.0,29.74,10.0,CALM,0.0,0.0,Fair,False,False,True,False,False,False,False,False,False,False,False,True,False,Day,Day,Day,Day
A-2256700,MapQuest,201.0,2,2018-03-18 11:19:27,2018-03-18 11:49:09,41.774433,-87.946579,,,0.0,Accident on 63rd St at IL-83 Kingery Hwy.,,63rd St,R,Willowbrook,DuPage,IL,60527,US,US/Central,KMDW,2018-03-18 10:53:00,48.0,,36.0,30.09,10.0,West,4.6,,Partly Cloudy,False,False,False,False,False,False,False,False,False,False,False,True,False,Day,Day,Day,Day
A-473568,MapQuest,201.0,2,2017-06-14 07:41:37,2017-06-14 08:26:28,42.941002,-85.624756,,,0.0,Accident on Hall St at Plymouth Ave.,1198.0,Plymouth Ave SE,L,Grand Rapids,Kent,MI,49506-6528,US,US/Eastern,KGRR,2017-06-14 07:53:00,70.0,,78.0,29.97,10.0,East,6.9,,Mostly Cloudy,False,False,False,False,False,False,False,False,False,False,False,True,False,Day,Day,Day,Day
A-1794382,MapQuest,201.0,2,2018-10-01 19:19:50,2018-10-01 19:49:26,36.233414,-86.758598,,,0.0,Accident on US-41 Dickerson Pike near Maplewood Trce.,3166.0,Dickerson Pike,L,Nashville,Davidson,TN,37207-2932,US,US/Central,KBNA,2018-10-01 18:53:00,75.9,,82.0,30.17,10.0,South,4.6,,Mostly Cloudy,False,False,False,False,False,False,False,False,False,False,False,False,False,Night,Night,Day,Day
A-3317718,Bing,,2,2020-10-28 21:50:00,2020-10-29 00:10:49,27.269061,-82.441456,27.26906,-82.441406,0.003,Incident on CLARK RD near HUMMINGBIRD AVE Drive with caution.,6581.0, Clark Rd,R,Sarasota,Sarasota,FL,34241,US,US/Eastern,KSRQ,2020-10-28 21:53:00,81.0,81.0,85.0,29.93,10.0,ESE,7.0,0.0,Fair,False,False,False,False,False,False,False,False,False,False,False,False,False,Night,Night,Night,Night
A-3324314,Bing,,2,2020-10-16 10:20:00,2020-10-17 20:55:00,25.846986,-80.211189,25.847086,-80.208139,0.19,Queuing traffic on FL-934 from FL-934/NW 13th Ct (FL-934) to I-95 (FL-934) due to accident.,7899.0, NW 8th Ave,R,Miami,Miami-Dade,FL,33150-3220,US,US/Eastern,KOPF,2020-10-16 09:53:00,81.0,81.0,79.0,30.0,10.0,N,5.0,0.0,Fair,False,False,False,False,False,False,False,False,True,False,False,False,False,Day,Day,Day,Day
A-1375620,MapQuest,201.0,3,2019-06-25 09:26:05,2019-06-25 11:05:52,36.14896,-86.776947,,,0.0,Accident on I-40 Westbound near I-65 .,,I-40 W,R,Nashville,Davidson,TN,37203,US,US/Central,KBNA,2019-06-25 09:53:00,81.0,81.0,62.0,29.43,10.0,WSW,3.0,0.0,Mostly Cloudy,False,False,False,False,False,False,False,False,False,False,False,False,False,Day,Day,Day,Day
A-2844709,Bing,,2,2016-09-28 18:48:49,2016-09-29 00:48:49,37.36458,-121.90176,37.36195,-121.90367,0.21,At US-101 - Accident.,,I-880 S,R,San Jose,Santa Clara,CA,95112,US,US/Pacific,KSJC,2016-09-28 18:53:00,66.2,,68.0,29.9,10.0,WNW,10.4,,Scattered Clouds,False,False,False,False,True,False,False,False,False,False,False,False,False,Day,Day,Day,Day
A-3116733,Bing,,2,2020-12-11 01:35:52,2020-12-11 02:50:53,44.969927,-93.400558,44.973387,-93.400478,0.239,Incident on US-169 NB near I-394 Drive with caution.,,US-169 N,R,Minneapolis,Hennepin,MN,55426,US,US/Central,KMIC,2020-12-11 01:53:00,35.0,29.0,76.0,29.13,10.0,N,7.0,0.0,Fair,False,False,False,False,False,False,False,False,False,False,False,False,False,Night,Night,Night,Night
A-2312768,MapQuest,201.0,2,2018-02-13 08:19:15,2018-02-13 09:18:54,34.781677,-82.54274,,,0.0,Accident on Guilford Dr at SC-486 Brushy Creek Rd.,2284.0,Brushy Creek Rd,R,Easley,Anderson,SC,29642-8712,US,US/Eastern,KGYH,2018-02-13 08:47:00,44.6,38.8,61.0,30.66,10.0,NNE,11.5,,Overcast,False,False,False,False,False,False,False,False,False,False,False,False,False,Day,Day,Day,Day
A-1197729,MapQuest,201.0,2,2019-09-05 10:23:23,2019-09-05 11:54:46,40.882477,-73.016479,,,0.0,Accident on CR-83 Patchogue Mt Sinai Rd at Hawkins Path.,,Patchogue-Mt Sinai Rd,R,Coram,Suffolk,NY,11727,US,US/Eastern,KISP,2019-09-05 09:56:00,67.0,67.0,66.0,29.98,10.0,NE,12.0,0.0,Mostly Cloudy,False,False,False,False,False,False,False,False,False,False,False,False,False,Day,Day,Day,Day
A-1795362,MapQuest,201.0,2,2018-10-02 08:15:53,2018-10-02 08:45:45,40.769135,-73.91066,,,0.0,Accident on Astoria Blvd at Steinway St.,2388.0,Steinway St,R,Astoria,Queens,NY,11103,US,US/Eastern,KLGA,2018-10-02 08:28:00,70.0,,81.0,30.2,10.0,Calm,,,Mostly Cloudy,False,False,False,False,False,False,False,False,False,False,False,False,False,Day,Day,Day,Day
A-179154,MapQuest,201.0,3,2016-12-04 13:07:05,2016-12-04 13:36:37,42.476501,-83.111794,,,0.01,Right hand shoulder blocked due to accident on I-75 Southbound at Exit 61 I-696.,,I-696 E,R,Royal Oak,Oakland,MI,48067,US,US/Eastern,KVLL,2016-12-04 13:15:00,38.3,35.9,61.0,30.12,10.0,South,3.5,,Overcast,False,False,False,False,False,False,False,False,False,False,False,False,False,Day,Day,Day,Day
A-916173,MapQuest,201.0,2,2020-01-25 05:12:58,2020-01-25 05:59:01,37.362747,-121.887878,,,0.0,Accident on US-101 Northbound at Exit 388A Oakland Rd.,,Bayshore Fwy N,R,San Jose,Santa Clara,CA,95112,US,US/Pacific,KSJC,2020-01-25 04:53:00,54.0,54.0,93.0,30.08,3.0,SSE,3.0,0.0,Cloudy,False,False,False,False,False,False,False,False,False,False,False,False,False,Night,Night,Night,Night
A-1616083,MapQuest,201.0,3,2019-01-01 02:43:51,2019-01-01 03:13:40,39.396332,-119.758186,,,0.0,Accident on I-580 Northbound at Exit 56 NV-431 Mt Rose Hwy.,,I-580 N,R,Reno,Washoe,NV,89511,US,US/Pacific,KRNO,2019-01-01 02:55:00,19.0,13.9,68.0,30.32,10.0,ENE,3.5,,Partly Cloudy,False,False,False,False,False,False,False,False,False,False,False,False,False,Night,Night,Night,Night
A-3520958,Bing,,2,2020-06-25 13:40:10,2020-06-25 14:45:08,39.25785,-84.80301,39.25785,-84.80301,0.0,At Harrison Ave - Accident.,10999.0, New Haven Rd,R,Harrison,Hamilton,OH,45030-1649,US,US/Eastern,KCVG,2020-06-25 13:52:00,81.0,81.0,44.0,29.1,10.0,VAR,7.0,0.0,Partly Cloudy,False,False,True,False,False,False,False,False,False,False,False,True,False,Day,Day,Day,Day
A-901986,MapQuest,201.0,2,2020-01-17 19:27:52,2020-01-17 19:57:32,28.551689,-81.529701,,,0.0,2 left lane blocked due to accident on FL-50 Colonial Dr Westbound at Blackwood Ave.,,W Colonial Dr,R,Ocoee,Orange,FL,34761,US,US/Eastern,KORL,2020-01-17 19:53:00,67.0,67.0,66.0,30.28,10.0,E,10.0,0.0,Fair,False,False,True,False,False,False,False,False,False,False,False,True,False,Night,Night,Night,Night
A-1999414,MapQuest,201.0,2,2018-07-10 15:04:11,2018-07-10 15:33:54,39.88509,-86.088852,,,0.0,Accident on Allisonville Rd near Cranbrook Dr.,7207.0,Allisonville Rd,R,Indianapolis,Marion,IN,46250-2457,US,US/Eastern,KMQJ,2018-07-10 14:57:00,89.6,,66.0,30.07,10.0,West,8.1,,Mostly Cloudy,False,False,False,False,False,False,False,False,False,False,False,False,False,Day,Day,Day,Day
A-2888991,Bing,,4,2017-03-31 11:52:31,2017-03-31 17:52:31,35.75185,-78.70633,35.75343,-78.6447,3.457,Closed between Gorman St/Exit 295 and US-70/US-401/NC-50/Exit 298 - Road closed due to accident.,,US-64 E,R,Raleigh,Wake,NC,27606,US,US/Eastern,KRDU,2017-03-31 11:51:00,66.9,,87.0,29.68,8.0,SSW,11.5,0.01,Light Rain,False,False,False,False,True,False,False,False,False,False,False,False,False,Day,Day,Day,Day
A-125701,MapQuest,201.0,2,2016-11-02 09:11:48,2016-11-02 09:41:18,28.555573,-82.397659,,,0.01,Accident on FL-50A Jefferson St at US-98 Ponce de Leon Blvd.,701.0,W Jefferson St,L,Brooksville,Hernando,FL,34601-2531,US,US/Eastern,KBKV,2016-11-02 08:53:00,70.0,,93.0,30.22,10.0,NE,3.5,,Scattered Clouds,False,False,False,False,False,False,False,False,False,False,False,True,False,Day,Day,Day,Day
A-267308,MapQuest,201.0,2,2016-12-29 16:25:51,2016-12-29 17:25:35,29.759089,-95.351822,,,0.01,Accident on Commerce St at Hamilton St.,1.0,Hamilton St,L,Houston,Harris,TX,77002-1331,US,US/Central,KMCJ,2016-12-29 16:35:00,62.6,,26.0,30.34,10.0,North,16.1,,Clear,False,False,True,False,False,False,False,False,False,False,False,True,False,Day,Day,Day,Day
A-1152977,MapQuest,201.0,2,2019-11-27 15:57:46,2019-11-27 16:57:25,29.720495,-95.571442,,,0.0,Accident on Westpark Dr at Wilcrest Dr.,,Westpark Dr,R,Houston,Harris,TX,77042,US,US/Central,KMCJ,2019-11-27 15:53:00,69.0,69.0,24.0,30.07,10.0,NE,16.0,0.0,Cloudy,False,False,False,False,False,False,False,False,False,False,False,True,False,Day,Day,Day,Day
A-3461142,Bing,,2,2020-06-02 03:38:00,2020-06-02 04:30:35,34.186646,-118.474262,34.186646,-118.474262,0.0,At Burbank Blvd/Exit 64 - Accident.,,I-405 S,R,Van Nuys,Los Angeles,CA,91406,US,US/Pacific,KVNY,2020-06-02 03:51:00,67.0,67.0,57.0,29.03,10.0,CALM,0.0,0.0,Fair,False,False,False,False,False,False,False,False,False,False,False,False,False,Night,Night,Night,Night
A-1036636,MapQuest,201.0,2,2019-12-23 16:04:20,2019-12-23 17:03:39,40.111729,-83.025642,,,0.0,Accident on I-270 Westbound at Exits 22 23 US-23 High St.,,Outerbelt E,R,Columbus,Franklin,OH,43085,US,US/Eastern,KOSU,2019-12-23 15:53:00,55.0,55.0,57.0,29.12,10.0,CALM,0.0,0.0,Fair,False,False,False,False,False,False,False,False,False,False,False,False,False,Day,Day,Day,Day
A-1358097,MapQuest,241.0,3,2019-06-16 13:40:07,2019-06-16 14:09:13,25.86919,-80.208656,,,0.0,Left lane blocked due to accident on I-95 Express Southbound at FL-932 / NW 103rd St.,,I-95 S,R,Miami,Miami-Dade,FL,33150,US,US/Eastern,KOPF,2019-06-16 13:53:00,73.0,73.0,96.0,30.08,7.0,S,3.0,0.43,Rain,False,False,False,False,False,False,False,False,False,False,False,True,False,Day,Day,Day,Day
A-1957946,MapQuest,201.0,3,2018-08-17 08:37:04,2018-08-17 09:06:43,33.987732,-118.398964,,,0.0,#5 lane blocked due to accident on I-405 Northbound at Exits 50A 50B CA-90.,,Jefferson Blvd,R,Culver City,Los Angeles,CA,90230,US,US/Pacific,KSMO,2018-08-17 08:51:00,77.0,,71.0,30.06,6.0,Calm,,,Haze,False,False,False,False,False,False,False,False,False,False,False,True,False,Day,Day,Day,Day
A-2587671,MapQuest,201.0,3,2017-09-04 12:08:43,2017-09-04 12:38:18,40.666622,-73.787354,,,0.0,Accident on Southern State Pkwy Eastbound at Exit 20 NY-27 Conduit Ave.,,JFK Expy S,R,Jamaica,Queens,NY,11434,US,US/Eastern,KJFK,2017-09-04 11:51:00,75.0,,55.0,29.99,10.0,SW,16.1,,Mostly Cloudy,False,False,False,False,False,False,False,False,False,False,False,False,False,Day,Day,Day,Day
A-2859656,Bing,,3,2016-07-27 23:13:53,2016-07-28 05:13:53,33.86322,-117.53919,33.86649,-117.54094,0.247,Ramp to Exit 95 - Accident.,,I-15 N,R,Corona,Riverside,CA,92881,US,US/Pacific,KAJO,2016-07-27 23:56:00,75.9,,29.0,29.92,10.0,West,4.6,,Clear,False,False,False,False,False,False,False,False,False,False,False,False,False,Night,Night,Night,Night
A-1782708,MapQuest,201.0,2,2018-11-26 08:43:51,2018-11-26 09:13:39,40.102512,-75.278328,,,0.0,Accident on Germantown Pike at Butler Pike.,1.0,E Germantown Pike,L,Plymouth Meeting,Montgomery,PA,19462-1505,US,US/Eastern,KLOM,2018-11-26 08:35:00,42.8,38.6,100.0,29.81,5.0,East,6.9,,Mostly Cloudy,False,False,False,False,False,False,False,False,False,False,False,False,False,Day,Day,Day,Day
A-503593,MapQuest,241.0,2,2017-07-11 20:08:25,2017-07-11 20:36:20,40.924328,-73.843506,,,0.0,1 right lane blocked due to accident on Bronx River Pkwy Southbound at Exit 11W Cross County Pkwy.,,Bronx River Pkwy S,R,Bronxville,Westchester,NY,10708,US,US/Eastern,KHPN,2017-07-11 19:56:00,80.1,,69.0,29.94,10.0,NW,4.6,,Mostly Cloudy,False,False,False,False,False,False,False,False,False,False,False,False,False,Day,Day,Day,Day
A-2449226,MapQuest,201.0,3,2017-12-21 10:56:12,2017-12-21 11:26:00,39.748451,-111.834755,,,0.0,Accident on I-15 Northbound at Exit 228 UT-41 Main St.,,I-15 S,R,Nephi,Juab,UT,84648,US,US/Mountain,KPVU,2017-12-21 10:56:00,30.0,16.9,56.0,30.09,10.0,NW,21.9,,Clear,False,False,False,False,False,False,False,False,False,False,False,False,False,Day,Day,Day,Day
A-1588028,MapQuest,201.0,2,2019-02-13 00:06:59,2019-02-13 00:51:44,34.104008,-118.190941,,,0.0,Accident on CA-110 Northbound at Exit 28B Via Marisol.,,Arroyo Seco Pkwy,R,Los Angeles,Los Angeles,CA,90042,US,US/Pacific,KCQT,2019-02-13 00:47:00,57.0,,39.0,29.99,10.0,East,3.5,,Mostly Cloudy,False,False,False,False,False,False,False,False,False,False,False,False,False,Night,Night,Night,Night
A-1513846,MapQuest,201.0,2,2019-03-08 10:51:17,2019-03-08 11:36:07,33.378197,-111.97039,,,0.0,Accident on Baseline Rd at Wendler Dr.,2013.0,W Baseline Rd,R,Tempe,Maricopa,AZ,85283,US,US/Mountain,KPHX,2019-03-08 10:51:00,61.0,,41.0,29.83,10.0,WSW,11.5,,Mostly Cloudy,False,False,False,False,False,False,False,False,False,False,False,False,False,Day,Day,Day,Day
A-2187802,MapQuest,201.0,3,2018-04-13 19:49:19,2018-04-13 20:18:39,34.090961,-81.165977,,,1.89999997616,Left lane blocked due to accident on I-26 Westbound from Woodcross Dr to SC-60 Lake Murray Blvd.,,Lake Murray Blvd,R,Irmo,Richland,SC,29063,US,US/Eastern,KFDW,2018-04-13 19:55:00,71.6,,46.0,30.08,10.0,SSW,3.5,,Clear,False,False,False,False,False,False,False,False,False,False,False,False,False,Day,Day,Day,Day
A-64886,MapQuest,241.0,3,2017-01-23 12:02:43,2017-01-23 12:32:19,33.734238,-117.816048,,,0.01,#1 lane blocked due to accident on I-5 Northbound before Red Hill Ave.,,I-5 N,R,Tustin,Orange,CA,92780,US,US/Pacific,KSNA,2017-01-23 11:53:00,55.9,,67.0,29.89,10.0,WSW,11.5,,Mostly Cloudy,False,False,False,False,False,False,False,False,False,False,False,False,False,Day,Day,Day,Day
A-1939342,MapQuest,201.0,3,2018-08-09 16:31:06,2018-08-09 17:00:46,41.713387,-71.472565,,,0.0,Left hand shoulder blocked due to accident on I-95 Northbound at Exits 11 12 12A 12B I-295.,,I-295 N,R,Warwick,Kent,RI,02886,US,US/Eastern,KPVD,2018-08-09 16:51:00,89.1,,50.0,29.73,10.0,WNW,8.1,,Scattered Clouds,False,False,False,False,False,False,False,False,False,False,False,False,False,Day,Day,Day,Day
A-397280,MapQuest,201.0,2,2017-04-07 16:04:32,2017-04-07 16:34:08,38.560513,-121.458061,,,0.01,Accident on US-50 Westbound before Exit 7 Stockton Blvd. On the median.,,El Dorado Fwy W,R,Sacramento,Sacramento,CA,95816,US,US/Pacific,KSAC,2017-04-07 16:07:00,59.0,,87.0,29.83,10.0,SSW,9.2,,Mostly Cloudy,False,False,False,False,False,False,False,False,False,False,False,False,False,Day,Day,Day,Day
A-2261496,MapQuest,201.0,3,2018-03-20 19:09:25,2018-03-20 19:39:03,36.116264,-86.773529,,,0.0,1 left lane blocked due to accident on I-65 Southbound at Exit 80 I-440.,,I-65 S,R,Nashville,Davidson,TN,37204,US,US/Central,KBNA,2018-03-20 18:53:00,36.0,27.5,86.0,29.78,10.0,NW,12.7,0.0,Light Drizzle,False,False,False,False,False,False,False,False,False,False,False,False,False,Night,Day,Day,Day
A-831464,MapQuest,201.0,3,2020-03-13 21:07:25,2020-03-13 22:07:10,34.343536,-79.532578,,,0.0,Accident on I-95 Northbound at Exits 181A 181B SC-38.,,I-95 N,R,Latta,Dillon,SC,29565,US,US/Eastern,KMAO,2020-03-13 21:15:00,68.0,68.0,83.0,30.04,10.0,CALM,0.0,0.0,Partly Cloudy,False,False,False,False,False,False,False,False,False,False,False,False,False,Night,Night,Night,Night
A-317620,MapQuest,201.0,3,2017-02-01 08:43:06,2017-02-01 09:27:54,34.120487,-117.824669,,,0.01,Connecting roadway blocked due to accident on I-210 Eastbound at SB CA-57. SigAlert issued.,,Foothill Fwy W,R,Glendora,Los Angeles,CA,91740,US,US/Pacific,KPOC,2017-02-01 08:47:00,53.6,,51.0,30.14,10.0,Calm,,,Clear,False,False,False,False,False,False,False,False,False,False,False,False,False,Day,Day,Day,Day
A-3740988,Bing,,2,2020-02-27 13:02:00,2020-02-27 15:15:18,45.02965,-92.96223,45.02965,-92.96223,0.0,At I-694 - Accident.,,I-694 E,R,Saint Paul,Washington,MN,55128,US,US/Central,K21D,2020-02-27 12:56:00,,,,29.14,10.0,NW,8.0,0.0,Fair,False,False,False,False,False,False,False,False,False,False,False,False,False,Day,Day,Day,Day
A-3798372,Bing,,2,2019-10-10 16:01:00,2019-10-10 16:54:45,44.85228,-93.29822,44.84798,-93.29827,0.297,At 90th St/Exit 7B - Accident.,,I-35W S,R,Minneapolis,Hennepin,MN,55420,US,US/Central,KMSP,2019-10-10 16:02:00,59.0,59.0,90.0,28.88,6.0,SE,12.0,0.0,Cloudy,False,False,False,False,False,False,False,False,False,False,False,False,False,Day,Day,Day,Day
A-2590085,MapQuest,245.0,3,2017-09-05 08:25:28,2017-09-05 09:25:01,26.627878,-80.067314,,,0.0,Two lanes blocked due to accident on I-95 Southbound at Exit 64 10th Ave.,,10th Ave N,R,Lake Worth,Palm Beach,FL,33460,US,US/Eastern,KPBI,2017-09-05 08:53:00,84.9,,69.0,30.01,10.0,SE,6.9,,Mostly Cloudy,False,False,False,False,False,False,False,False,False,False,False,False,False,Day,Day,Day,Day
A-899008,MapQuest,201.0,3,2020-01-16 09:21:09,2020-01-16 10:22:25,42.502354,-71.11895,,,0.0,Accident on I-93 Northbound at 128.,,I-95 S,R,Reading,Middlesex,MA,01867,US,US/Eastern,KBVY,2020-01-16 08:53:00,38.0,33.0,89.0,29.61,3.0,ESE,7.0,0.03,Light Rain,False,False,False,False,True,False,False,False,False,False,False,False,False,Day,Day,Day,Day
A-334570,MapQuest,201.0,2,2017-02-08 08:21:55,2017-02-08 08:51:40,29.79833,-95.455772,,,0.01,Accident on Hempstead Rd at Post Oak Rd.,9799.0,Hempstead Rd,L,Houston,Harris,TX,77092-8513,US,US/Central,KMCJ,2017-02-08 08:15:00,71.6,,83.0,29.79,6.0,SW,6.9,,Mostly Cloudy,False,False,False,False,False,False,False,False,False,False,False,True,False,Day,Day,Day,Day
A-3042605,Bing,,2,2020-10-03 22:25:00,2020-10-04 00:03:08,33.752135,-117.455359,33.773485,-117.485089,2.257,Incident on I-15 NB near INDIAN TRUCK TRL Drive with caution.,,Corona Fwy N,R,Corona,Riverside,CA,92883,US,US/Pacific,KAJO,2020-10-03 21:56:00,67.0,67.0,61.0,29.34,9.0,CALM,0.0,0.0,Fair,False,False,False,False,False,False,False,False,False,False,False,False,False,Night,Night,Night,Night
A-3456566,Bing,,2,2020-05-31 07:04:19,2020-05-31 09:04:19,43.40056,-123.33607,43.40056,-123.33607,0.0,At OR-138/Exit 136 - Accident.,,I-5 N,R,Oakland,Douglas,OR,97462,US,US/Pacific,KRBG,2020-05-31 07:01:00,53.0,53.0,83.0,29.52,10.0,N,5.0,0.0,Cloudy,False,False,False,False,False,False,False,False,False,False,False,False,False,Day,Day,Day,Day
A-1288268,MapQuest,201.0,3,2019-07-24 07:00:23,2019-07-24 08:44:29,41.380047,-71.902794,,,5.28999996185,Right lane closed due to accident on I-95 Southbound between I-95 and Exit 91 CT-234.,,I-95 S,R,Stonington,New London,CT,06378,US,US/Eastern,KWST,2019-07-24 06:53:00,67.0,67.0,93.0,29.85,10.0,N,3.0,0.0,Cloudy,False,False,False,False,False,False,False,False,False,False,False,False,False,Day,Day,Day,Day
A-3927010,Bing,,2,2019-01-16 06:58:06,2019-01-16 07:27:26,44.95968,-93.20027,44.96019,-93.20901,0.429,At MN-280/Exit 236 - Accident.,,I-94 W,R,Saint Paul,Ramsey,MN,55114,US,US/Central,KMSP,2019-01-16 06:53:00,8.1,-7.0,76.0,30.36,10.0,North,11.5,,Partly Cloudy,False,False,False,False,False,False,False,False,False,False,False,False,False,Night,Night,Day,Day
A-889021,MapQuest,201.0,2,2020-01-10 18:56:19,2020-01-10 19:58:02,39.599098,-84.238083,,,1.17999994755,Accident on exit ramp from I-75 Southbound at Exit 41 to Austin Blvd Northbound.,,I-75 S,R,Miamisburg,Montgomery,OH,45342,US,US/Eastern,KMGY,2020-01-10 18:53:00,56.0,56.0,90.0,29.13,10.0,S,7.0,0.03,Light Rain,False,False,False,False,False,False,False,False,False,False,False,False,False,Night,Night,Night,Day
A-1183690,MapQuest,201.0,2,2019-09-25 08:05:13,2019-09-25 09:05:07,32.763393,-96.665482,,,0.0,Accident on TX-352 Scyene Rd at Prairie Creek Rd.,,N Prairie Creek Rd,R,Dallas,Dallas,TX,75227,US,US/Central,KHQZ,2019-09-25 07:50:00,73.0,73.0,88.0,29.41,10.0,SSE,7.0,0.0,Partly Cloudy,False,False,False,False,False,False,False,False,False,False,False,True,False,Day,Day,Day,Day
A-3046230,Bing,,2,2020-11-29 18:47:13,2020-11-30 03:02:39,36.11898,-86.701189,36.118364,-86.698965,0.131,Stationary traffic on US-70S E - US-70S W - TN-1 - US-41 S - US-41 N from District 13 to exit [4] due to accident.,,Murfreesboro Pike,R,Nashville,Davidson,TN,37217,US,US/Central,KBNA,2020-11-29 18:53:00,47.0,41.0,77.0,29.26,8.0,NNW,13.0,0.02,Light Rain,False,False,False,False,False,False,False,False,False,False,False,False,False,Night,Night,Night,Night
A-1881087,MapQuest,201.0,3,2018-09-11 22:14:27,2018-09-11 22:44:08,29.395046,-98.478073,,,0.0,#1 lane blocked and left hand shoulder blocked due to accident on I-37 Southbound at Exit 139 I-10.,,US-90 E,R,San Antonio,Bexar,TX,78210,US,US/Central,KSSF,2018-09-11 22:22:00,77.0,,82.0,29.93,10.0,North,5.8,,Overcast,False,False,False,False,False,False,False,False,False,False,False,False,False,Night,Night,Night,Night
A-3393754,Bing,,2,2020-10-16 16:33:00,2020-10-16 20:05:30,27.990313,-82.795616,27.991491,-82.79548,0.082,Stationary traffic from CR-576/Sunset Point Rd (US-19 Alt) to Skinner Blvd (US-19 Alt) due to accident resurfacing work.,1900.0, Edgewater Dr,L,Clearwater,Pinellas,FL,33755,US,US/Eastern,KPIE,2020-10-16 16:53:00,86.0,86.0,61.0,29.97,10.0,NW,14.0,0.0,Fair,False,False,False,False,False,False,False,False,False,False,False,True,False,Day,Day,Day,Day
A-2299787,MapQuest,201.0,2,2018-02-07 17:45:12,2018-02-07 18:14:56,35.12817,-80.876762,,,0.0,Accident on South Blvd at Sharon Lakes Rd.,7900.0,South Blvd,R,Charlotte,Mecklenburg,NC,28273-5946,US,US/Eastern,KCLT,2018-02-07 17:52:00,59.0,,96.0,30.04,10.0,SSW,9.2,,Overcast,False,False,True,False,False,False,True,False,False,False,False,True,False,Day,Day,Day,Day
A-2395382,MapQuest,201.0,3,2018-01-28 02:07:42,2018-01-28 02:37:24,33.772102,-118.037834,,,0.0,Slow lane blocked due to accident on I-405 Southbound at Exit 21 CA-22.,,San Diego Fwy S,R,Westminster,Orange,CA,92683,US,US/Pacific,KSLI,2018-01-28 01:58:00,48.6,,57.0,30.17,10.0,NE,3.5,,Clear,False,False,False,False,False,False,False,False,False,False,False,False,False,Night,Night,Night,Night
A-2837777,Bing,,2,2016-10-31 17:43:41,2016-10-31 23:43:41,37.339231,-121.99561,37.341288,-121.995669,0.142,At Lochinvar Ave - Accident.,931.0, Lawrence Expy,R,Santa Clara,Santa Clara,CA,95051,US,US/Pacific,KSJC,2016-10-31 17:53:00,64.0,,54.0,29.98,10.0,South,12.7,,Mostly Cloudy,False,False,False,False,False,False,False,False,False,False,False,False,False,Day,Day,Day,Day
A-2417842,MapQuest,201.0,3,2017-12-07 11:51:56,2017-12-07 12:36:32,32.427929,-85.899094,,,0.0,Right hand shoulder blocked due to accident on I-85 Southbound at Exit 26 AL-229.,,I-85 N,R,Shorter,Macon,AL,36075,US,US/Central,KMXF,2017-12-07 11:56:00,48.4,,62.0,30.16,10.0,North,5.8,,Overcast,False,False,False,False,False,False,False,False,False,False,False,False,False,Day,Day,Day,Day
A-1576929,MapQuest,201.0,2,2019-02-08 10:49:56,2019-02-08 11:49:43,34.699348,-81.611877,,,0.0,Accident on SC-215 Beltline Rd at Sims Dr.,211.0,Beltline Rd,L,Union,Union,SC,29379-8841,US,US/Eastern,KLUX,2019-02-08 10:55:00,68.0,,52.0,30.17,10.0,West,10.4,,Clear,False,False,False,False,False,False,False,False,False,False,False,False,False,Day,Day,Day,Day
A-1213274,MapQuest,201.0,3,2019-09-12 16:05:44,2019-09-12 17:50:07,41.240608,-111.90274,,,3.17000007629,Accident on UT-39 Ogden Cyn both ways from MP 8 to MP 14.,91.0,Ogden Cyn,L,Ogden,Weber,UT,84401-0965,US,US/Mountain,KOGD,2019-09-12 15:53:00,70.0,70.0,29.0,25.75,10.0,N,6.0,0.0,Fair,False,False,False,False,False,False,False,False,False,False,False,False,False,Day,Day,Day,Day
A-1044650,MapQuest,201.0,2,2019-10-08 13:13:06,2019-10-08 14:21:25,33.097221,-80.549088,,,0.0,Accident on SC-19 Wire Rd at Old Bell Rd.,2595.0,Wire Rd,L,Saint George,Dorchester,SC,29477-6523,US,US/Eastern,KRBW,2019-10-08 13:15:00,82.0,82.0,54.0,29.87,10.0,NE,9.0,0.0,Partly Cloudy,False,False,False,False,False,False,False,False,False,False,False,False,False,Day,Day,Day,Day
A-2704350,MapQuest,203.0,3,2017-08-24 05:45:21,2017-08-24 06:15:03,33.916679,-117.287613,,,0.0,Left hand shoulder blocked due to multi-vehicle accident on I-215 Northbound after Alessandro Blvd.,,E Alessandro Blvd,R,Riverside,Riverside,CA,92508,US,US/Pacific,KRIV,2017-08-24 05:58:00,63.1,,100.0,29.87,6.0,Calm,,,Overcast,False,False,False,False,False,False,False,False,False,False,False,False,False,Night,Night,Day,Day
A-1593092,MapQuest,201.0,3,2019-02-14 22:27:17,2019-02-14 22:56:55,37.979576,-122.317398,,,0.0,Slow lane blocked due to accident on I-80 Westbound at Exit 19B Hilltop Dr.,,I-80 W,R,San Pablo,Contra Costa,CA,94806,US,US/Pacific,KCCR,2019-02-14 22:34:00,51.1,,77.0,29.81,6.0,SSW,10.4,0.08,Light Rain,False,False,False,False,False,False,False,False,False,False,False,False,False,Night,Night,Night,Night
A-3669432,Bing,,2,2020-04-28 23:53:00,2020-04-29 00:47:44,34.252414,-119.210986,34.252414,-119.210986,0.0,At Victoria Ave - Accident.,,CA-1 S,R,Ventura,Ventura,CA,93003,US,US/Pacific,KOXR,2020-04-28 23:51:00,61.0,61.0,90.0,29.94,9.0,SSE,3.0,0.0,Fair,False,False,False,False,False,False,False,False,False,False,False,False,False,Night,Night,Night,Night
A-2464900,MapQuest,201.0,2,2017-11-01 17:21:00,2017-11-01 18:20:39,28.146229,-81.452858,,,0.0,Accident on Doverplum Ave at County Hwy-580 Cypress Pkwy.,,S Doverplum Ave,R,Kissimmee,Osceola,FL,34759,US,US/Eastern,KISM,2017-11-01 16:56:00,79.0,,47.0,30.1,10.0,ESE,6.9,,Mostly Cloudy,False,False,True,False,False,False,False,False,False,False,False,True,False,Day,Day,Day,Day
A-4040896,Bing,,4,2018-05-02 18:02:11,2018-05-03 00:02:11,38.43548,-122.5782,38.433506,-122.57359,0.284,Closed at Warm Springs Rd/Kenwood Winery Rd - Road closed due to accident.,101.0, N Pythian Rd,R,Santa Rosa,Sonoma,CA,95409,US,US/Pacific,KSTS,2018-05-02 17:53:00,64.9,,61.0,29.97,10.0,SSE,12.7,,Clear,False,False,False,False,False,False,False,False,False,False,False,True,False,Day,Day,Day,Day
A-794592,MapQuest,201.0,2,2020-06-26 17:04:06,2020-06-26 18:20:04,34.870491,-82.416008,,,0.0,Accident on Old Buncombe Rd at Buncombe Rd.,1898.0,Old Buncombe Rd,L,Greenville,Greenville,SC,29609-4376,US,US/Eastern,KGMU,2020-06-26 16:53:00,83.0,83.0,63.0,29.01,10.0,WSW,9.0,0.0,Cloudy,False,False,False,False,False,False,False,False,False,False,False,True,False,Day,Day,Day,Day
A-2341416,MapQuest,201.0,3,2018-02-27 13:58:23,2018-02-27 14:27:41,44.972172,-93.251259,,,0.0,Accident on I-35W Southbound near Exit 17A Washington Ave.,,Washington Ave SE,R,Minneapolis,Hennepin,MN,55454,US,US/Central,KMSP,2018-02-27 13:53:00,44.1,40.1,47.0,29.93,10.0,NE,6.9,,Scattered Clouds,False,False,False,False,False,False,False,False,False,False,False,False,False,Day,Day,Day,Day
A-2814456,Bing,,3,2016-04-14 09:08:49,2016-04-14 15:08:49,42.973738,-90.589315,42.973949,-90.625687,1.839,At US-61/Lincoln Ave/12th St - Accident.,3444.0, US Highway 18,R,Fennimore,Grant,WI,53809-9752,US,US/Central,KOVS,2016-04-14 08:53:00,53.1,,48.0,30.25,10.0,SSW,5.8,,Clear,False,False,False,False,False,False,False,False,False,False,False,False,False,Day,Day,Day,Day
A-2630242,MapQuest,201.0,2,2017-09-22 15:57:01,2017-09-22 16:56:42,35.804115,-78.645851,,,0.0,Accident on US-70 Glenwood Ave near Fairview Rd.,1730.0,Glenwood Ave,R,Raleigh,Wake,NC,27608-2322,US,US/Eastern,KRDU,2017-09-22 15:51:00,87.1,,37.0,30.0,10.0,Variable,4.6,,Scattered Clouds,False,False,True,False,False,False,False,False,False,True,False,True,False,Day,Day,Day,Day
A-143894,MapQuest,201.0,2,2016-07-13 10:46:22,2016-07-13 11:16:22,28.427589,-81.475037,,,0.0,Accident on Westgate Lakes Blvd at Turkey Lake Rd.,9603.0,Turkey Lake Rd,L,Orlando,Orange,FL,32819,US,US/Eastern,KMCO,2016-07-13 10:53:00,89.1,,63.0,30.16,10.0,Calm,,,Scattered Clouds,False,False,False,False,False,False,False,False,False,False,False,True,False,Day,Day,Day,Day
A-2343406,MapQuest,245.0,3,2018-01-01 01:52:12,2018-01-01 02:21:30,25.848267,-80.207558,,,0.0,Two lanes blocked due to accident on I-95 Northbound at Exit 7 6th Ct.,,I-95 N,R,Miami,Miami-Dade,FL,33150,US,US/Eastern,KOPF,2018-01-01 01:53:00,62.1,,93.0,30.12,5.0,North,3.5,,Clear,False,False,False,False,False,False,False,False,False,False,False,False,False,Night,Night,Night,Night
A-1044243,MapQuest,201.0,3,2019-10-08 16:46:03,2019-10-08 17:47:29,26.36982,-80.11998,,,2.51999998093,Exit ramp from I-95 Southbound at Exit 45 to FL-808 Westbound lane blocked due to accident.,2278.0,N Military Trl,R,Boca Raton,Palm Beach,FL,33431,US,US/Eastern,KBCT,2019-10-08 16:42:00,81.0,81.0,82.0,29.83,10.0,W,6.0,0.1,Partly Cloudy,False,False,False,False,False,False,False,False,False,False,False,False,False,Day,Day,Day,Day
A-329181,MapQuest,201.0,2,2017-02-10 16:04:20,2017-02-10 17:04:06,39.798573,-84.212006,,,0.01,Accident on Siebenthaler Ave both ways at Merrimac Ave.,3625.0,Merrimac Ave,L,Dayton,Montgomery,OH,45405,US,US/Eastern,KDAY,2017-02-10 15:56:00,39.0,30.6,41.0,29.94,10.0,South,15.0,,Mostly Cloudy,False,False,False,False,False,False,False,False,False,False,False,False,False,Day,Day,Day,Day
A-3355452,Bing,,2,2020-10-28 14:04:00,2020-10-28 15:21:04,30.408085,-97.676535,30.407893,-97.678227,0.102,Incident on W PARMER LN near N I-35 SERVICE RD Drive with caution.,570.0, W Parmer Ln,R,Austin,Travis,TX,78753,US,US/Central,KATT,2020-10-28 13:51:00,56.0,56.0,55.0,29.2,10.0,NNW,8.0,0.0,Fair,False,False,False,False,False,False,False,False,False,False,False,False,False,Day,Day,Day,Day
A-2151002,MapQuest,241.0,3,2018-05-25 12:20:44,2018-05-25 13:04:47,35.2244,-80.865578,,,0.0,Lane blocked due to accident on I-77 Southbound at Exit 9 John Belk Fwy W.,,I-77 N,R,Charlotte,Mecklenburg,NC,28208,US,US/Eastern,KCLT,2018-05-25 12:05:00,79.0,,74.0,30.09,10.0,South,4.6,,Mostly Cloudy,False,False,False,False,False,False,False,False,False,False,False,False,False,Day,Day,Day,Day
A-3339393,Bing,,2,2020-12-17 13:55:30,2020-12-18 04:31:46,26.543347,-81.871341,26.548319,-81.871468,0.344,Slow traffic on FL-45 - US-41 N from Andrea Ln/Lakeridge Ct (US-41) to South Rd/Page Airport Rd (US-41) due to accident.,13725.0, S Tamiami Trl,L,Fort Myers,Lee,FL,33912-1627,US,US/Eastern,KRSW,2020-12-17 13:53:00,72.0,72.0,68.0,30.03,10.0,WNW,8.0,0.0,Cloudy,False,False,False,False,False,False,False,False,False,False,False,False,False,Day,Day,Day,Day
A-1072563,MapQuest,241.0,2,2019-10-21 06:55:59,2019-10-21 07:47:00,34.169231,-119.136322,,,0.0,Lane blocked due to accident on Pleasant Valley Rd at Dodge Rd.,3001.0,Dodge Rd,R,Oxnard,Ventura,CA,93033,US,US/Pacific,KOXR,2019-10-21 06:51:00,67.0,67.0,33.0,29.91,10.0,NNE,10.0,0.0,Fair,False,False,True,False,False,False,False,False,False,False,False,True,False,Night,Day,Day,Day
A-3707923,Bing,,2,2020-01-31 13:28:05,2020-01-31 13:57:26,40.74099,-73.82132,40.74294,-73.82975,0.461,At Main St/Exit 23 - Accident. Right lane blocked.,,Long Island Expy W,R,Flushing,Queens,NY,11367,US,US/Eastern,KLGA,2020-01-31 13:51:00,39.0,35.0,73.0,30.27,10.0,ENE,6.0,0.0,Cloudy,False,False,False,False,True,False,False,False,False,False,False,False,False,Day,Day,Day,Day
A-1277724,MapQuest,201.0,2,2019-07-18 11:15:05,2019-07-18 12:01:17,43.050861,-83.65052,,,0.0,Accident on Richfield Rd at Branch Rd.,3099.0,Richfield Rd,L,Flint,Genesee,MI,48506-2471,US,US/Eastern,KFNT,2019-07-18 10:53:00,83.0,83.0,67.0,29.09,10.0,SSW,8.0,0.0,Fair,False,False,False,False,False,False,False,False,False,False,False,False,False,Day,Day,Day,Day
A-158294,MapQuest,202.0,2,2016-06-28 12:33:16,2016-06-28 13:18:16,33.550434,-81.489441,,,0.0,Serious accident on State Park Rd at County Hwy-777 Old Tory Trl.,1498.0,Old Tory Trl,L,Windsor,Aiken,SC,29856-2230,US,US/Eastern,KAIK,2016-06-28 12:35:00,86.0,,55.0,30.02,10.0,NNW,6.9,,Mostly Cloudy,False,False,False,False,False,False,False,False,False,False,False,False,False,Day,Day,Day,Day
A-3503229,Bing,,1,2020-05-19 08:49:21,2020-05-19 09:04:21,38.73151,-120.75226,38.73151,-120.75226,0.0,At N Point View Dr/Exit 49 - Accident. Hard shoulder blocked.,,US-50 W,R,Placerville,El Dorado,CA,95667,US,US/Pacific,KPVF,2020-05-19 08:55:00,45.0,45.0,100.0,27.31,10.0,CALM,0.0,0.0,Cloudy,False,False,False,False,False,False,False,False,False,False,False,False,False,Day,Day,Day,Day
A-1206541,MapQuest,241.0,2,2019-09-10 14:43:20,2019-09-10 16:42:34,40.021065,-75.624107,,,0.0,Lane blocked due to accident on PA-100 Pottstown Pike Northbound before US-30 Exton Byp.,,Pottstown Pike,R,Exton,Chester,PA,19341,US,US/Eastern,KOQN,2019-09-10 14:35:00,79.0,79.0,57.0,29.6,10.0,VAR,7.0,0.0,Partly Cloudy,False,False,False,False,True,False,False,False,False,False,False,False,False,Day,Day,Day,Day
A-1786500,MapQuest,201.0,2,2018-11-27 06:04:25,2018-11-27 06:34:15,38.933029,-94.529175,,,0.0,Accident on I-470 Westbound at Exit 1 I-49.,,I-470 E,R,Kansas City,Jackson,MO,64137,US,US/Central,KLXT,2018-11-27 05:53:00,21.0,12.4,71.0,30.22,10.0,NNW,6.9,,Partly Cloudy,False,False,False,False,True,False,False,False,False,False,False,False,False,Night,Night,Night,Day
